$GPGGA,235949.200,,,,,0,0,,,M,,M,,*4A
$GPGGA,235949.599,,,,,0,0,,,M,,M,,*4D
$GPGGA,235949.799,,,,,0,0,,,M,,M,,*4F
$GPGGA,235950.000,,,,,0,0,,,M,,M,,*40
$GPGGA,235950.200,,,,,0,0,,,M,,M,,*42
$GPGGA,235950.400,,,,,0,0,,,M,,M,,*44
$GPGGA,235950.599,,,,,0,0,,,M,,M,,*45
$GPGGA,235950.799,,,,,0,0,,,M,,M,,*47
$GPGGA,235951.000,,,,,0,0,,,M,,M,,*41
$GPGGA,235951.200,,,,,0,0,,,M,,M,,*43
$GPGGA,235951.400,,,,,0,0,,,M,,M,,*45
$GPGGA,235951.599,,,,,0,0,,,M,,M,,*44
$GPGGA,235951.799,,,,,0,0,,,M,,M,,*46
$GPGGA,235952.000,,,,,0,0,,,M,,M,,*42
$GPGGA,235952.199,,,,,0,0,,,M,,M,,*43
$GPGGA,235952.400,,,,,0,0,,,M,,M,,*46
$GPGGA,235952.599,,,,,0,0,,,M,,M,,*47
$GPGGA,235952.800,,,,,0,0,,,M,,M,,*4A
$GPGGA,235953.000,,,,,0,0,,,M,,M,,*43
$GPGGA,235953.199,,,,,0,0,,,M,,M,,*42
$GPGGA,235953.400,,,,,0,0,,,M,,M,,*47
$GPGGA,235953.599,,,,,0,0,,,M,,M,,*46
$GPGGA,235953.800,,,,,0,0,,,M,,M,,*4B
$GPGGA,235954.000,,,,,0,0,,,M,,M,,*44
$GPGGA,235954.199,,,,,0,0,,,M,,M,,*45
$GPGGA,235954.400,,,,,0,0,,,M,,M,,*40
$GPGGA,235954.599,,,,,0,0,,,M,,M,,*41
$GPGGA,235954.800,,,,,0,0,,,M,,M,,*4C
$GPGGA,235955.000,,,,,0,0,,,M,,M,,*45
$GPGGA,235955.199,,,,,0,0,,,M,,M,,*44
$GPGGA,235955.400,,,,,0,0,,,M,,M,,*41
$GPGGA,235955.599,,,,,0,0,,,M,,M,,*40
$GPGGA,235955.800,,,,,0,0,,,M,,M,,*4D
$GPGGA,235956.000,,,,,0,0,,,M,,M,,*46
$GPGGA,235956.199,,,,,0,0,,,M,,M,,*47
$GPGGA,235956.400,,,,,0,0,,,M,,M,,*42
$GPGGA,235956.599,,,,,0,0,,,M,,M,,*43
$GPGGA,235956.800,,,,,0,0,,,M,,M,,*4E
$GPGGA,235957.000,,,,,0,0,,,M,,M,,*47
$GPGGA,235957.199,,,,,0,0,,,M,,M,,*46
$GPGGA,235957.400,,,,,0,0,,,M,,M,,*43
$GPGGA,235957.599,,,,,0,0,,,M,,M,,*42
$GPGGA,235957.800,,,,,0,0,,,M,,M,,*4F
$GPGGA,235958.000,,,,,0,0,,,M,,M,,*48
$GPGGA,235958.199,,,,,0,0,,,M,,M,,*49
$GPGGA,235958.400,,,,,0,0,,,M,,M,,*4C
$GPGGA,235958.599,,,,,0,0,,,M,,M,,*4D
$GPGGA,235958.800,,,,,0,0,,,M,,M,,*40
$GPGGA,235959.000,,,,,0,0,,,M,,M,,*49
$GPGGA,235959.199,,,,,0,0,,,M,,M,,*48
$GPGGA,235959.400,,,,,0,0,,,M,,M,,*4D
$GPGGA,235959.599,,,,,0,0,,,M,,M,,*4C
$GPGGA,235959.800,,,,,0,0,,,M,,M,,*41
$GPGGA,000000.000,,,,,0,0,,,M,,M,,*48
$GPGGA,000000.199,,,,,0,0,,,M,,M,,*49
$GPGGA,000000.399,,,,,0,0,,,M,,M,,*4B
$GPGGA,000000.600,,,,,0,0,,,M,,M,,*4E
$GPGGA,000000.800,,,,,0,0,,,M,,M,,*40
$GPGGA,000001.000,,,,,0,0,,,M,,M,,*49
$GPGGA,000001.199,,,,,0,0,,,M,,M,,*48
$GPGGA,000001.399,,,,,0,0,,,M,,M,,*4A
$GPGGA,000001.600,,,,,0,0,,,M,,M,,*4F
$GPGGA,000001.800,,,,,0,0,,,M,,M,,*41
$GPGGA,000002.000,,,,,0,0,,,M,,M,,*4A
$GPGGA,000002.199,,,,,0,0,,,M,,M,,*4B
$GPGGA,000002.399,,,,,0,0,,,M,,M,,*49
$GPGGA,000002.600,,,,,0,0,,,M,,M,,*4C
$GPGGA,000002.800,,,,,0,0,,,M,,M,,*42
$GPGGA,000003.000,,,,,0,0,,,M,,M,,*4B
$GPGGA,000003.199,,,,,0,0,,,M,,M,,*4A
$GPGGA,000003.399,,,,,0,0,,,M,,M,,*48
$GPGGA,000003.600,,,,,0,0,,,M,,M,,*4D
$GPGGA,000003.800,,,,,0,0,,,M,,M,,*43
$GPGGA,000004.000,,,,,0,0,,,M,,M,,*4C
$GPGGA,000004.199,,,,,0,0,,,M,,M,,*4D
$GPGGA,000004.399,,,,,0,0,,,M,,M,,*4F
$GPGGA,000004.600,,,,,0,0,,,M,,M,,*4A
$GPGGA,000004.800,,,,,0,0,,,M,,M,,*44
$GPGGA,000005.000,,,,,0,0,,,M,,M,,*4D
$GPGGA,000005.199,,,,,0,0,,,M,,M,,*4C
$GPGGA,000005.399,,,,,0,0,,,M,,M,,*4E
$GPGGA,000005.600,,,,,0,0,,,M,,M,,*4B
$GPGGA,000005.800,,,,,0,0,,,M,,M,,*45
$GPGGA,000006.000,,,,,0,0,,,M,,M,,*4E
$GPGGA,000006.199,,,,,0,0,,,M,,M,,*4F
$GPGGA,000006.399,,,,,0,0,,,M,,M,,*4D
$GPGGA,000006.600,,,,,0,0,,,M,,M,,*48
$GPGGA,000006.800,,,,,0,0,,,M,,M,,*46
$GPGGA,000007.000,,,,,0,0,,,M,,M,,*4F
$GPGGA,000007.199,,,,,0,0,,,M,,M,,*4E
$GPGGA,000007.399,,,,,0,0,,,M,,M,,*4C
$GPGGA,000007.600,,,,,0,0,,,M,,M,,*49
$GPGGA,000007.800,,,,,0,0,,,M,,M,,*47
$GPGGA,000008.000,,,,,0,0,,,M,,M,,*40
$GPGGA,000008.199,,,,,0,0,,,M,,M,,*41
$GPGGA,000008.399,,,,,0,0,,,M,,M,,*43
$GPGGA,000008.600,,,,,0,0,,,M,,M,,*46
$GPGGA,000008.800,,,,,0,0,,,M,,M,,*48
$GPGGA,000009.000,,,,,0,0,,,M,,M,,*41
$GPGGA,000009.199,,,,,0,0,,,M,,M,,*40
$GPGGA,000009.399,,,,,0,0,,,M,,M,,*42
$GPGGA,000009.600,,,,,0,0,,,M,,M,,*47
$GPGGA,000009.800,,,,,0,0,,,M,,M,,*49
$GPGGA,000010.000,,,,,0,0,,,M,,M,,*49
$GPGGA,000010.199,,,,,0,0,,,M,,M,,*48
$GPGGA,000010.399,,,,,0,0,,,M,,M,,*4A
$GPGGA,000010.600,,,,,0,0,,,M,,M,,*4F
$GPGGA,000010.800,,,,,0,0,,,M,,M,,*41
$GPGGA,000011.000,,,,,0,0,,,M,,M,,*48
$GPGGA,000011.199,,,,,0,0,,,M,,M,,*49
$GPGGA,000011.399,,,,,0,0,,,M,,M,,*4B
$GPGGA,000011.600,,,,,0,0,,,M,,M,,*4E
$GPGGA,000011.800,,,,,0,0,,,M,,M,,*40
$GPGGA,000012.000,,,,,0,0,,,M,,M,,*4B
$GPGGA,000012.199,,,,,0,0,,,M,,M,,*4A
$GPGGA,000012.399,,,,,0,0,,,M,,M,,*48
$GPGGA,000012.600,,,,,0,0,,,M,,M,,*4D
$GPGGA,000012.800,,,,,0,0,,,M,,M,,*43
$GPGGA,000013.000,,,,,0,0,,,M,,M,,*4A
$GPGGA,000013.199,,,,,0,0,,,M,,M,,*4B
$GPGGA,000013.370,,,,,0,0,,,M,,M,,*4E
$GPGGA,000013.571,,,,,0,0,,,M,,M,,*49
$GPGGA,000013.771,,,,,0,0,,,M,,M,,*4B
$GPGGA,000013.971,,,,,0,0,,,M,,M,,*45
$GPGGA,000014.170,,,,,0,0,,,M,,M,,*4B
$GPGGA,000014.370,,,,,0,0,,,M,,M,,*49
$GPGGA,000014.571,,,,,0,0,,,M,,M,,*4E
$GPGGA,000014.771,,,,,0,0,,,M,,M,,*4C
$GPGGA,000014.971,,,,,0,0,,,M,,M,,*42
$GPGGA,000015.170,,,,,0,0,,,M,,M,,*4A
$GPGGA,000015.370,,,,,0,0,,,M,,M,,*48
$GPGGA,000015.571,,,,,0,0,,,M,,M,,*4F
$GPGGA,000015.771,,,,,0,0,,,M,,M,,*4D
$GPGGA,000015.971,,,,,0,0,,,M,,M,,*43
$GPGGA,000016.170,,,,,0,0,,,M,,M,,*49
$GPGGA,000016.371,,,,,0,0,,,M,,M,,*4A
$GPGGA,000016.570,,,,,0,0,,,M,,M,,*4D
$GPGGA,000016.771,,,,,0,0,,,M,,M,,*4E
$GPGGA,000016.970,,,,,0,0,,,M,,M,,*41
$GPGGA,000017.170,,,,,0,0,,,M,,M,,*48
$GPGGA,000017.371,,,,,0,0,,,M,,M,,*4B
$GPGGA,000017.570,,,,,0,0,,,M,,M,,*4C
$GPGGA,000017.771,,,,,0,0,,,M,,M,,*4F
$GPGGA,000017.970,,,,,0,0,,,M,,M,,*40
$GPGGA,000018.170,,,,,0,0,,,M,,M,,*47
$GPGGA,000018.371,,,,,0,0,,,M,,M,,*44
$GPGGA,000018.570,,,,,0,0,,,M,,M,,*43
$GPGGA,000018.771,,,,,0,0,,,M,,M,,*40
$GPGGA,000018.970,,,,,0,0,,,M,,M,,*4F
$GPGGA,000019.170,,,,,0,0,,,M,,M,,*46
$GPGGA,000019.371,,,,,0,0,,,M,,M,,*45
$GPGGA,000019.570,,,,,0,0,,,M,,M,,*42
$GPGGA,000019.771,,,,,0,0,,,M,,M,,*41
$GPGGA,000019.970,,,,,0,0,,,M,,M,,*4E
$GPGGA,000020.170,,,,,0,0,,,M,,M,,*4C
$GPGGA,000020.371,,,,,0,0,,,M,,M,,*4F
$GPGGA,000020.570,,,,,0,0,,,M,,M,,*48
$GPGGA,000020.771,,,,,0,0,,,M,,M,,*4B
$GPGGA,000020.970,,,,,0,0,,,M,,M,,*44
$GPGGA,000021.170,,,,,0,0,,,M,,M,,*4D
$GPGGA,000021.371,,,,,0,0,,,M,,M,,*4E
$GPGGA,000021.570,,,,,0,0,,,M,,M,,*49
$GPGGA,000021.771,,,,,0,0,,,M,,M,,*4A
$GPGGA,000021.970,,,,,0,0,,,M,,M,,*45
$GPGGA,000022.170,,,,,0,0,,,M,,M,,*4E
$GPGGA,000022.371,,,,,0,0,,,M,,M,,*4D
$GPGGA,000022.570,,,,,0,0,,,M,,M,,*4A
$GPGGA,000022.771,,,,,0,0,,,M,,M,,*49
$GPGGA,000022.970,,,,,0,0,,,M,,M,,*46
$GPGGA,000023.170,,,,,0,0,,,M,,M,,*4F
$GPGGA,000023.371,,,,,0,0,,,M,,M,,*4C
$GPGGA,000023.570,,,,,0,0,,,M,,M,,*4B
$GPGGA,000023.771,,,,,0,0,,,M,,M,,*48
$GPGGA,000023.970,,,,,0,0,,,M,,M,,*47
$GPGGA,000024.170,,,,,0,0,,,M,,M,,*48
$GPGGA,000024.371,,,,,0,0,,,M,,M,,*4B
$GPGGA,000024.570,,,,,0,0,,,M,,M,,*4C
$GPGGA,000024.771,,,,,0,0,,,M,,M,,*4F
$GPGGA,000024.970,,,,,0,0,,,M,,M,,*40
$GPGGA,000025.170,,,,,0,0,,,M,,M,,*49
$GPGGA,000025.371,,,,,0,0,,,M,,M,,*4A
$GPGGA,000025.570,,,,,0,0,,,M,,M,,*4D
$GPGGA,000025.771,,,,,0,0,,,M,,M,,*4E
$GPGGA,000025.970,,,,,0,0,,,M,,M,,*41
$GPGGA,000026.170,,,,,0,0,,,M,,M,,*4A
$GPGGA,000026.371,,,,,0,0,,,M,,M,,*49
$GPGGA,042009.304,,,,,0,0,,,M,,M,,*40
$GPGGA,042009.505,,,,,0,0,,,M,,M,,*47
$GPGGA,042009.705,,,,,0,0,,,M,,M,,*45
$GPGGA,042009.904,,,,,0,0,,,M,,M,,*4A
$GPGGA,042010.104,,,,,0,0,,,M,,M,,*4A
$GPGGA,042010.304,,,,,0,0,,,M,,M,,*48
$GPGGA,042010.505,,,,,0,0,,,M,,M,,*4F
$GPGGA,042010.705,,,,,0,0,,,M,,M,,*4D
$GPGGA,042010.904,,,,,0,0,,,M,,M,,*42
$GPGGA,042011.104,,,,,0,0,,,M,,M,,*4B
$GPGGA,042011.304,,,,,0,0,,,M,,M,,*49
$GPGGA,042011.505,,,,,0,0,,,M,,M,,*4E
$GPGGA,042011.705,,,,,0,0,,,M,,M,,*4C
$GPGGA,042011.904,,,,,0,0,,,M,,M,,*43
$GPGGA,042012.104,,,,,0,0,,,M,,M,,*48
$GPGGA,042012.304,,,,,0,0,,,M,,M,,*4A
$GPGGA,042012.505,,,,,0,0,,,M,,M,,*4D
$GPGGA,042012.705,,,,,0,0,,,M,,M,,*4F
$GPGGA,042012.904,,,,,0,0,,,M,,M,,*40
$GPGGA,042013.104,,,,,0,0,,,M,,M,,*49
$GPGGA,042013.304,,,,,0,0,,,M,,M,,*4B
$GPGGA,042013.505,,,,,0,0,,,M,,M,,*4C
$GPGGA,042013.705,,,,,0,0,,,M,,M,,*4E
$GPGGA,042013.904,,,,,0,0,,,M,,M,,*41
$GPGGA,042014.091,,,,,0,0,,,M,,M,,*43
$GPGGA,042014.290,,,,,0,0,,,M,,M,,*40
$GPGGA,042014.490,,,,,0,0,,,M,,M,,*46
$GPGGA,042014.691,,,,,0,0,,,M,,M,,*45
$GPGGA,042014.891,,,,,0,0,,,M,,M,,*4B
$GPGGA,042015.091,,,,,0,0,,,M,,M,,*42
$GPGGA,042015.290,,,,,0,0,,,M,,M,,*41
$GPGGA,042015.490,,,,,0,0,,,M,,M,,*47
$GPGGA,042015.691,,,,,0,0,,,M,,M,,*44
$GPGGA,042015.891,,,,,0,0,,,M,,M,,*4A
$GPGGA,042016.091,,,,,0,0,,,M,,M,,*41
$GPGGA,042016.290,,,,,0,0,,,M,,M,,*42
$GPGGA,042016.490,,,,,0,0,,,M,,M,,*44
$GPGGA,042016.691,,,,,0,0,,,M,,M,,*47
$GPGGA,042016.891,,,,,0,0,,,M,,M,,*49
$GPGGA,042017.091,,,,,0,0,,,M,,M,,*40
$GPGGA,042017.290,,,,,0,0,,,M,,M,,*43
$GPGGA,042017.490,,,,,0,0,,,M,,M,,*45
$GPGGA,042017.691,,,,,0,0,,,M,,M,,*46
$GPGGA,042017.891,,,,,0,0,,,M,,M,,*48
$GPGGA,042018.091,,,,,0,0,,,M,,M,,*4F
$GPGGA,042018.290,,,,,0,0,,,M,,M,,*4C
$GPGGA,042018.490,,,,,0,0,,,M,,M,,*4A
$GPGGA,042018.691,,,,,0,0,,,M,,M,,*49
$GPGGA,042018.891,,,,,0,0,,,M,,M,,*47
$GPGGA,042019.091,,,,,0,0,,,M,,M,,*4E
$GPGGA,042019.290,,,,,0,0,,,M,,M,,*4D
$GPGGA,042019.490,,,,,0,0,,,M,,M,,*4B
$GPGGA,042019.691,,,,,0,0,,,M,,M,,*48
$GPGGA,042019.891,,,,,0,0,,,M,,M,,*46
$GPGGA,042020.126,,,,,0,0,,,M,,M,,*49
$GPGGA,042020.326,,,,,0,0,,,M,,M,,*4B
$GPGGA,042020.525,,,,,0,0,,,M,,M,,*4E
$GPGGA,042020.725,,,,,0,0,,,M,,M,,*4C
$GPGGA,042020.926,,,,,0,0,,,M,,M,,*41
$GPGGA,042021.126,,,,,0,0,,,M,,M,,*48
$GPGGA,042021.326,,,,,0,0,,,M,,M,,*4A
$GPGGA,042021.525,,,,,0,0,,,M,,M,,*4F
$GPGGA,042021.725,,,,,0,0,,,M,,M,,*4D
$GPGGA,042021.926,,,,,0,0,,,M,,M,,*40
$GPGGA,042022.126,,,,,0,0,,,M,,M,,*4B
$GPGGA,042022.326,,,,,0,0,,,M,,M,,*49
$GPGGA,042022.525,,,,,0,0,,,M,,M,,*4C
$GPGGA,042022.725,,,,,0,0,,,M,,M,,*4E
$GPGGA,042022.926,,,,,0,0,,,M,,M,,*43
$GPGGA,042023.126,,,,,0,0,,,M,,M,,*4A
$GPGGA,042023.326,,,,,0,0,,,M,,M,,*48
$GPGGA,042023.525,,,,,0,0,,,M,,M,,*4D
$GPGGA,042023.725,,,,,0,0,,,M,,M,,*4F
$GPGGA,042023.926,,,,,0,0,,,M,,M,,*42
$GPGGA,042024.126,,,,,0,0,,,M,,M,,*4D
$GPGGA,042024.326,,,,,0,0,,,M,,M,,*4F
$GPGGA,042024.525,,,,,0,0,,,M,,M,,*4A
$GPGGA,042024.725,,,,,0,0,,,M,,M,,*48
$GPGGA,042024.926,,,,,0,0,,,M,,M,,*45
$GPGGA,042025.126,,,,,0,0,,,M,,M,,*4C
$GPGGA,042025.326,,,,,0,0,,,M,,M,,*4E
$GPGGA,042025.525,,,,,0,0,,,M,,M,,*4B
$GPGGA,042025.725,,,,,0,0,,,M,,M,,*49
$GPGGA,042025.926,,,,,0,0,,,M,,M,,*44
$GPGGA,042026.126,,,,,0,0,,,M,,M,,*4F
$GPGGA,042026.326,,,,,0,0,,,M,,M,,*4D
$GPGGA,042026.525,,,,,0,0,,,M,,M,,*48
$GPGGA,042026.725,,,,,0,0,,,M,,M,,*4A
$GPGGA,042026.926,,,,,0,0,,,M,,M,,*47
$GPGGA,042027.126,,,,,0,0,,,M,,M,,*4E
$GPGGA,042027.326,,,,,0,0,,,M,,M,,*4C
$GPGGA,042027.525,,,,,0,0,,,M,,M,,*49
$GPGGA,042027.725,,,,,0,0,,,M,,M,,*4B
$GPGGA,042027.926,,,,,0,0,,,M,,M,,*46
$GPGGA,042028.126,,,,,0,0,,,M,,M,,*41
$GPGGA,042028.326,,,,,0,0,,,M,,M,,*43
$GPGGA,042028.525,,,,,0,0,,,M,,M,,*46
$GPGGA,042028.725,,,,,0,0,,,M,,M,,*44
$GPGGA,042028.926,,,,,0,0,,,M,,M,,*49
$GPGGA,042029.126,,,,,0,0,,,M,,M,,*40
$GPGGA,042029.326,,,,,0,0,,,M,,M,,*42
$GPGGA,042029.525,,,,,0,0,,,M,,M,,*47
$GPGGA,042029.725,,,,,0,0,,,M,,M,,*45
$GPGGA,042029.926,,,,,0,0,,,M,,M,,*48
$GPGGA,042030.126,,,,,0,0,,,M,,M,,*48
$GPGGA,042030.326,,,,,0,0,,,M,,M,,*4A
$GPGGA,042030.525,,,,,0,0,,,M,,M,,*4F
$GPGGA,042030.725,,,,,0,0,,,M,,M,,*4D
$GPGGA,042030.926,,,,,0,0,,,M,,M,,*40
$GPGGA,042031.126,,,,,0,0,,,M,,M,,*49
$GPGGA,042031.326,,,,,0,0,,,M,,M,,*4B
$GPGGA,042031.525,,,,,0,0,,,M,,M,,*4E
$GPGGA,042031.725,,,,,0,0,,,M,,M,,*4C
$GPGGA,042031.926,,,,,0,0,,,M,,M,,*41
$GPGGA,042032.126,,,,,0,0,,,M,,M,,*4A
$GPGGA,042032.326,,,,,0,0,,,M,,M,,*48
$GPGGA,042032.525,,,,,0,0,,,M,,M,,*4D
$GPGGA,042032.725,,,,,0,0,,,M,,M,,*4F
$GPGGA,042032.926,,,,,0,0,,,M,,M,,*42
$GPGGA,042033.126,,,,,0,0,,,M,,M,,*4B
$GPGGA,042033.326,,,,,0,0,,,M,,M,,*49
$GPGGA,042033.525,,,,,0,0,,,M,,M,,*4C
$GPGGA,042033.725,,,,,0,0,,,M,,M,,*4E
$GPGGA,042033.926,,,,,0,0,,,M,,M,,*43
$GPGGA,042034.126,,,,,0,0,,,M,,M,,*4C
$GPGGA,042034.326,,,,,0,0,,,M,,M,,*4E
$GPGGA,042034.525,,,,,0,0,,,M,,M,,*4B
$GPGGA,042034.725,,,,,0,0,,,M,,M,,*49
$GPGGA,042034.926,,,,,0,0,,,M,,M,,*44
$GPGGA,042035.126,,,,,0,0,,,M,,M,,*4D
$GPGGA,042035.326,,,,,0,0,,,M,,M,,*4F
$GPGGA,042035.525,,,,,0,0,,,M,,M,,*4A
$GPGGA,042035.725,,,,,0,0,,,M,,M,,*48
$GPGGA,042035.926,,,,,0,0,,,M,,M,,*45
$GPGGA,042036.126,,,,,0,0,,,M,,M,,*4E
$GPGGA,042036.326,,,,,0,0,,,M,,M,,*4C
$GPGGA,042036.525,,,,,0,0,,,M,,M,,*49
$GPGGA,042036.725,,,,,0,0,,,M,,M,,*4B
$GPGGA,042036.926,,,,,0,0,,,M,,M,,*46
$GPGGA,042037.126,,,,,0,0,,,M,,M,,*4F
$GPGGA,042037.326,,,,,0,0,,,M,,M,,*4D
$GPGGA,042037.525,,,,,0,0,,,M,,M,,*48
$GPGGA,042037.725,,,,,0,0,,,M,,M,,*4A
$GPGGA,042037.926,,,,,0,0,,,M,,M,,*47
$GPGGA,042038.126,,,,,0,0,,,M,,M,,*40
$GPGGA,042038.326,,,,,0,0,,,M,,M,,*42
$GPGGA,042038.525,,,,,0,0,,,M,,M,,*47
$GPGGA,042038.725,,,,,0,0,,,M,,M,,*45
$GPGGA,042038.926,,,,,0,0,,,M,,M,,*48
$GPGGA,042039.126,,,,,0,0,,,M,,M,,*41
$GPGGA,042039.326,,,,,0,0,,,M,,M,,*43
$GPGGA,042039.525,,,,,0,0,,,M,,M,,*46
$GPGGA,042039.725,,,,,0,0,,,M,,M,,*44
$GPGGA,042039.926,,,,,0,0,,,M,,M,,*49
$GPGGA,042040.126,,,,,0,0,,,M,,M,,*4F
$GPGGA,042040.326,,,,,0,0,,,M,,M,,*4D
$GPGGA,042040.525,,,,,0,0,,,M,,M,,*48
$GPGGA,042040.725,,,,,0,0,,,M,,M,,*4A
$GPGGA,042040.926,,,,,0,0,,,M,,M,,*47
$GPGGA,042041.126,,,,,0,0,,,M,,M,,*4E
$GPGGA,042041.326,,,,,0,0,,,M,,M,,*4C
$GPGGA,042041.525,,,,,0,0,,,M,,M,,*49
$GPGGA,042041.725,,,,,0,0,,,M,,M,,*4B
$GPGGA,042041.926,,,,,0,0,,,M,,M,,*46
$GPGGA,042042.126,,,,,0,0,,,M,,M,,*4D
$GPGGA,042042.326,,,,,0,0,,,M,,M,,*4F
$GPGGA,042042.525,,,,,0,0,,,M,,M,,*4A
$GPGGA,042042.725,,,,,0,0,,,M,,M,,*48
$GPGGA,042042.926,,,,,0,0,,,M,,M,,*45
$GPGGA,042043.126,,,,,0,0,,,M,,M,,*4C
$GPGGA,042043.326,,,,,0,0,,,M,,M,,*4E
$GPGGA,042043.525,,,,,0,0,,,M,,M,,*4B
$GPGGA,042043.725,,,,,0,0,,,M,,M,,*49
$GPGGA,042043.926,,,,,0,0,,,M,,M,,*44
$GPGGA,042044.100,,,,,0,0,,,M,,M,,*4F
$GPGGA,042044.301,,,,,0,0,,,M,,M,,*4C
$GPGGA,042044.501,,,,,0,0,,,M,,M,,*4A
$GPGGA,042044.701,,,,,0,0,,,M,,M,,*48
$GPGGA,042044.900,,,,,0,0,,,M,,M,,*47
$GPGGA,042045.100,,,,,0,0,,,M,,M,,*4E
$GPGGA,042045.301,,,,,0,0,,,M,,M,,*4D
$GPGGA,042045.501,,,,,0,0,,,M,,M,,*4B
$GPGGA,042045.701,,,,,0,0,,,M,,M,,*49
$GPGGA,042045.900,,,,,0,0,,,M,,M,,*46
$GPGGA,042046.100,,,,,0,0,,,M,,M,,*4D
$GPGGA,042046.301,,,,,0,0,,,M,,M,,*4E
$GPGGA,042046.501,,,,,0,0,,,M,,M,,*48
$GPGGA,042046.701,,,,,0,0,,,M,,M,,*4A
$GPGGA,042046.900,,,,,0,0,,,M,,M,,*45
$GPGGA,042047.100,,,,,0,0,,,M,,M,,*4C
$GPGGA,042047.301,,,,,0,0,,,M,,M,,*4F
$GPGGA,042047.501,,,,,0,0,,,M,,M,,*49
$GPGGA,042047.701,,,,,0,0,,,M,,M,,*4B
$GPGGA,042047.900,,,,,0,0,,,M,,M,,*44
$GPGGA,042048.100,,,,,0,0,,,M,,M,,*43
$GPGGA,042048.301,,,,,0,0,,,M,,M,,*40
$GPGGA,042048.501,,,,,0,0,,,M,,M,,*46
$GPGGA,042048.701,,,,,0,0,,,M,,M,,*44
$GPGGA,042048.900,,,,,0,0,,,M,,M,,*4B
$GPGGA,042049.100,,,,,0,0,,,M,,M,,*42
$GPGGA,042049.301,,,,,0,0,,,M,,M,,*41
$GPGGA,042049.501,,,,,0,0,,,M,,M,,*47
$GPGGA,042049.701,,,,,0,0,,,M,,M,,*45
$GPGGA,042049.900,,,,,0,0,,,M,,M,,*4A
$GPGGA,042050.100,,,,,0,0,,,M,,M,,*4A
$GPGGA,042050.301,,,,,0,0,,,M,,M,,*49
$GPGGA,042050.501,,,,,0,0,,,M,,M,,*4F
$GPGGA,042050.701,,,,,0,0,,,M,,M,,*4D
$GPGGA,042050.900,,,,,0,0,,,M,,M,,*42
$GPGGA,042051.100,,,,,0,0,,,M,,M,,*4B
$GPGGA,042051.301,,,,,0,0,,,M,,M,,*48
$GPGGA,042051.501,,,,,0,0,,,M,,M,,*4E
$GPGGA,042051.701,,,,,0,0,,,M,,M,,*4C
$GPGGA,042051.900,,,,,0,0,,,M,,M,,*43
$GPGGA,042052.100,,,,,0,0,,,M,,M,,*48
$GPGGA,042052.301,,,,,0,0,,,M,,M,,*4B
$GPGGA,042052.501,,,,,0,0,,,M,,M,,*4D
$GPGGA,042052.701,,,,,0,0,,,M,,M,,*4F
$GPGGA,042052.900,,,,,0,0,,,M,,M,,*40
$GPGGA,042053.100,,,,,0,0,,,M,,M,,*49
$GPGGA,042053.301,,,,,0,0,,,M,,M,,*4A
$GPGGA,042053.501,,,,,0,0,,,M,,M,,*4C
$GPGGA,042053.701,,,,,0,0,,,M,,M,,*4E
$GPGGA,042053.900,,,,,0,0,,,M,,M,,*41
$GPGGA,042054.100,,,,,0,0,,,M,,M,,*4E
$GPGGA,042054.301,,,,,0,0,,,M,,M,,*4D
$GPGGA,042054.501,,,,,0,0,,,M,,M,,*4B
$GPGGA,042054.701,,,,,0,0,,,M,,M,,*49
$GPGGA,042054.900,,,,,0,0,,,M,,M,,*46
$GPGGA,042055.100,,,,,0,0,,,M,,M,,*4F
$GPGGA,042055.301,,,,,0,0,,,M,,M,,*4C
$GPGGA,042055.501,,,,,0,0,,,M,,M,,*4A
$GPGGA,042055.701,,,,,0,0,,,M,,M,,*48
$GPGGA,042055.900,,,,,0,0,,,M,,M,,*47
$GPGGA,042056.133,,,,,0,0,,,M,,M,,*4C
$GPGGA,042056.332,,,,,0,0,,,M,,M,,*4F
$GPGGA,042056.532,,,,,0,0,,,M,,M,,*49
$GPGGA,042056.732,,,,,0,0,,,M,,M,,*4B
$GPGGA,042056.933,,,,,0,0,,,M,,M,,*44
$GPGGA,042057.133,,,,,0,0,,,M,,M,,*4D
$GPGGA,042057.332,,,,,0,0,,,M,,M,,*4E
$GPGGA,042057.532,,,,,0,0,,,M,,M,,*48
$GPGGA,042057.732,,,,,0,0,,,M,,M,,*4A
$GPGGA,042057.933,,,,,0,0,,,M,,M,,*45
$GPGGA,042058.133,,,,,0,0,,,M,,M,,*42
$GPGGA,042058.332,,,,,0,0,,,M,,M,,*41
$GPGGA,042058.532,,,,,0,0,,,M,,M,,*47
$GPGGA,042058.732,,,,,0,0,,,M,,M,,*45
$GPGGA,042058.933,,,,,0,0,,,M,,M,,*4A
$GPGGA,042059.133,,,,,0,0,,,M,,M,,*43
$GPGGA,042059.332,,,,,0,0,,,M,,M,,*40
$GPGGA,042059.532,,,,,0,0,,,M,,M,,*46
$GPGGA,042059.732,,,,,0,0,,,M,,M,,*44
$GPGGA,042059.933,,,,,0,0,,,M,,M,,*4B
$GPGGA,042100.133,,,,,0,0,,,M,,M,,*4E
$GPGGA,042100.332,,,,,0,0,,,M,,M,,*4D
$GPGGA,042100.532,,,,,0,0,,,M,,M,,*4B
$GPGGA,042100.732,,,,,0,0,,,M,,M,,*49
$GPGGA,042100.933,,,,,0,0,,,M,,M,,*46
$GPGGA,042101.133,,,,,0,0,,,M,,M,,*4F
$GPGGA,042101.332,,,,,0,0,,,M,,M,,*4C
$GPGGA,042101.532,,,,,0,0,,,M,,M,,*4A
$GPGGA,042101.732,,,,,0,0,,,M,,M,,*48
$GPGGA,042101.933,,,,,0,0,,,M,,M,,*47
$GPGGA,042102.088,,,,,0,0,,,M,,M,,*4D
$GPGGA,042102.148,,,,,0,0,,,M,,M,,*40
$GPGGA,042102.347,,,,,0,0,,,M,,M,,*4D
$GPGGA,042102.547,,,,,0,0,,,M,,M,,*4B
$GPGGA,042102.748,,,,,0,0,,,M,,M,,*46
$GPGGA,042102.948,,,,,0,0,,,M,,M,,*48
$GPGGA,042103.148,,,,,0,0,,,M,,M,,*41
$GPGGA,042103.347,,,,,0,0,,,M,,M,,*4C
$GPGGA,042103.547,,,,,0,0,,,M,,M,,*4A
$GPGGA,042103.748,,,,,0,0,,,M,,M,,*47
$GPGGA,042103.948,,,,,0,0,,,M,,M,,*49
$GPGGA,042104.148,,,,,0,0,,,M,,M,,*46
$GPGGA,042104.347,,,,,0,0,,,M,,M,,*4B
$GPGGA,042104.547,,,,,0,0,,,M,,M,,*4D
$GPGGA,042104.748,,,,,0,0,,,M,,M,,*40
$GPGGA,042104.942,,,,,0,3,,,M,,M,,*47
$GPGGA,042105.142,,,,,0,3,,,M,,M,,*4E
$GPGGA,042105.400,,,,,0,3,,,M,,M,,*4D
$GPGGA,042105.600,3852.1419,N,07716.5423,W,1,3,5.41,183.3,M,-33.4,M,,*6F
$GPGGA,042105.800,3852.1427,N,07716.5418,W,1,3,5.41,183.2,M,-33.4,M,,*65
$GPGGA,042106.000,3852.1435,N,07716.5413,W,1,3,5.41,183.3,M,-33.4,M,,*67
$GPGGA,042106.200,3852.1443,N,07716.5407,W,1,3,5.41,183.3,M,-33.4,M,,*61
$GPGGA,042106.400,3852.1452,N,07716.5400,W,1,3,5.41,183.2,M,-33.4,M,,*61
$GPGGA,042106.600,3852.1457,N,07716.5393,W,1,3,5.41,183.2,M,-33.4,M,,*6B
$GPGGA,042106.800,3852.1462,N,07716.5386,W,1,3,5.41,183.2,M,-33.4,M,,*67
$GPGGA,042107.000,3852.1469,N,07716.5378,W,1,3,5.42,183.1,M,-33.4,M,,*64
$GPGGA,042107.200,3852.1477,N,07716.5372,W,1,3,5.42,183.1,M,-33.4,M,,*63
$GPGGA,042107.400,3852.1484,N,07716.5365,W,1,3,5.42,183.1,M,-33.4,M,,*6F
$GPGGA,042107.600,3852.1491,N,07716.5359,W,1,3,5.42,183.0,M,-33.4,M,,*67
$GPGGA,042107.800,3852.1498,N,07716.5352,W,1,3,5.42,183.0,M,-33.4,M,,*6B
$GPGGA,042108.000,3852.1508,N,07716.5346,W,1,3,5.42,182.9,M,-33.4,M,,*69
$GPGGA,042108.142,3852.1521,N,07716.5340,W,1,3,5.42,182.9,M,-33.4,M,,*63
$GPGGA,042108.400,3852.1531,N,07716.5332,W,1,3,5.42,182.9,M,-33.4,M,,*64
$GPGGA,042108.600,3852.1539,N,07716.5325,W,1,3,5.42,182.8,M,-33.4,M,,*69
$GPGGA,042108.800,3852.1548,N,07716.5319,W,1,3,5.42,182.8,M,-33.4,M,,*6E
$GPGGA,042109.000,3852.1558,N,07716.5312,W,1,3,5.41,182.8,M,-33.4,M,,*6E
$GPGGA,042109.200,3852.1566,N,07716.5306,W,1,3,5.42,182.7,M,-33.4,M,,*68
$GPGGA,042109.400,3852.1575,N,07716.5300,W,1,3,5.42,182.7,M,-33.4,M,,*6A
$GPGGA,042109.600,3852.1583,N,07716.5293,W,1,3,5.42,182.7,M,-33.4,M,,*6A
$GPGGA,042109.800,3852.1592,N,07716.5287,W,1,3,5.42,182.6,M,-33.4,M,,*60
$GPGGA,042110.000,3852.1599,N,07716.5281,W,1,3,5.42,182.6,M,-33.4,M,,*6D
$GPGGA,042110.200,3852.1608,N,07716.5273,W,1,3,5.42,182.6,M,-33.4,M,,*69
$GPGGA,042110.400,3852.1617,N,07716.5267,W,1,3,5.42,182.5,M,-33.4,M,,*67
$GPGGA,042110.600,3852.1626,N,07716.5260,W,1,3,5.42,182.5,M,-33.4,M,,*60
$GPGGA,042110.800,3852.1635,N,07716.5253,W,1,3,5.42,183.0,M,-33.4,M,,*68
$GPGGA,042111.000,3852.1642,N,07716.5247,W,1,3,5.42,182.9,M,-33.4,M,,*6C
$GPGGA,042111.200,3852.1649,N,07716.5241,W,1,3,5.42,182.9,M,-33.4,M,,*63
$GPGGA,042111.400,3852.1657,N,07716.5235,W,1,3,5.42,182.8,M,-33.4,M,,*68
$GPGGA,042111.600,3852.1664,N,07716.5229,W,1,3,5.42,182.8,M,-33.4,M,,*67
$GPGGA,042111.800,3852.1671,N,07716.5224,W,1,3,5.42,182.8,M,-33.4,M,,*60
$GPGGA,042112.000,3852.1679,N,07716.5219,W,1,3,5.43,182.7,M,-33.4,M,,*63
$GPGGA,042112.200,3852.1686,N,07716.5214,W,1,3,5.42,182.7,M,-33.4,M,,*6D
$GPGGA,042112.400,3852.1694,N,07716.5208,W,1,3,5.42,182.7,M,-33.4,M,,*65
$GPGGA,042112.600,3852.1701,N,07716.5203,W,1,3,5.42,182.6,M,-33.4,M,,*60
$GPGGA,042112.800,3852.1707,N,07716.5198,W,1,3,5.43,182.6,M,-33.4,M,,*68
$GPGGA,042113.000,3852.1713,N,07716.5193,W,1,3,5.42,182.5,M,-33.4,M,,*6D
$GPGGA,042113.200,3852.1719,N,07716.5189,W,1,3,5.42,182.5,M,-33.4,M,,*6E
$GPGGA,042113.400,3852.1725,N,07716.5184,W,1,3,5.42,182.5,M,-33.4,M,,*6A
$GPGGA,042113.600,3852.1731,N,07716.5180,W,1,3,5.43,182.4,M,-33.4,M,,*69
$GPGGA,042113.800,3852.1736,N,07716.5176,W,1,3,5.42,182.4,M,-33.4,M,,*68
$GPGGA,042114.000,3852.1743,N,07716.5173,W,1,3,5.42,182.4,M,-33.4,M,,*60
$GPGGA,042114.148,3852.1748,N,07716.5172,W,1,3,5.43,182.3,M,-33.4,M,,*61
$GPGGA,042114.400,3852.1754,N,07716.5166,W,1,3,5.42,182.3,M,-33.4,M,,*61
$GPGGA,042114.600,3852.1759,N,07716.5162,W,1,3,5.43,182.2,M,-33.4,M,,*6A
$GPGGA,042114.800,3852.1764,N,07716.5158,W,1,3,5.43,182.2,M,-33.4,M,,*63
$GPGGA,042115.000,3852.1769,N,07716.5154,W,1,3,5.43,182.2,M,-33.4,M,,*6B
$GPGGA,042115.200,3852.1774,N,07716.5150,W,1,3,5.43,182.1,M,-33.4,M,,*62
$GPGGA,042115.400,3852.1778,N,07716.5146,W,1,3,5.43,182.1,M,-33.4,M,,*6F
$GPGGA,042115.600,3852.1783,N,07716.5142,W,1,3,5.43,182.0,M,-33.4,M,,*6C
$GPGGA,042115.800,3852.1787,N,07716.5137,W,1,3,5.43,182.0,M,-33.4,M,,*64
$GPGGA,042116.000,3852.1788,N,07716.5133,W,1,3,5.43,182.0,M,-33.4,M,,*64
$GPGGA,042116.200,3852.1789,N,07716.5131,W,1,3,5.43,181.9,M,-33.4,M,,*6F
$GPGGA,042116.400,3852.1794,N,07716.5127,W,1,3,5.43,181.9,M,-33.4,M,,*62
$GPGGA,042116.600,3852.1798,N,07716.5125,W,1,3,5.43,181.9,M,-33.4,M,,*6E
$GPGGA,042116.800,3852.1803,N,07716.5125,W,1,3,5.43,181.8,M,-33.4,M,,*6C
$GPGGA,042117.000,3852.1807,N,07716.5125,W,1,3,5.43,181.8,M,-33.4,M,,*61
$GPGGA,042117.200,3852.1813,N,07716.5122,W,1,3,5.43,181.7,M,-33.4,M,,*6E
$GPGGA,042117.400,3852.1817,N,07716.5121,W,1,3,5.43,181.7,M,-33.4,M,,*6F
$GPGGA,042117.600,3852.1821,N,07716.5119,W,1,3,5.43,181.6,M,-33.4,M,,*62
$GPGGA,042117.800,3852.1827,N,07716.5119,W,1,3,5.43,181.6,M,-33.4,M,,*6A
$GPGGA,042118.000,3852.1832,N,07716.5120,W,1,3,56.86,181.6,M,-33.4,M,,*5C
$GPGGA,042118.200,3852.1834,N,07716.5121,W,1,3,56.87,181.5,M,-33.4,M,,*5B
$GPGGA,042118.400,3852.1838,N,07716.5121,W,1,3,56.87,181.5,M,-33.4,M,,*51
$GPGGA,042118.600,3852.1843,N,07716.5122,W,1,3,56.87,181.4,M,-33.4,M,,*5D
$GPGGA,042118.800,3852.1849,N,07716.5124,W,1,3,56.88,181.4,M,-33.4,M,,*50
$GPGGA,042119.000,3852.1852,N,07716.5129,W,1,3,56.88,181.3,M,-33.4,M,,*59
$GPGGA,042119.200,3852.1851,N,07716.5133,W,1,3,5.44,181.3,M,-33.4,M,,*65
$GPGGA,042119.400,3852.1852,N,07716.5135,W,1,3,5.44,181.2,M,-33.4,M,,*67
$GPGGA,042119.600,3852.1855,N,07716.5137,W,1,3,5.43,181.2,M,-33.4,M,,*67
$GPGGA,042119.800,3852.1858,N,07716.5140,W,1,3,5.44,181.1,M,-33.4,M,,*60
$GPGGA,042120.000,3852.1851,N,07716.5145,W,1,3,5.44,181.1,M,-33.4,M,,*6E
$GPGGA,042120.087,3852.1836,N,07716.5151,W,1,3,5.44,181.1,M,-33.4,M,,*65
$GPGGA,042120.400,3852.1832,N,07716.5158,W,1,3,5.44,181.0,M,-33.4,M,,*62
$GPGGA,042120.600,3852.1829,N,07716.5162,W,1,3,5.43,181.0,M,-33.4,M,,*64
$GPGGA,042120.800,3852.1829,N,07716.5165,W,1,3,5.44,180.9,M,-33.4,M,,*62
$GPGGA,042121.000,3852.1829,N,07716.5168,W,1,3,5.44,180.9,M,-33.4,M,,*66
$GPGGA,042121.200,3852.1828,N,07716.5171,W,1,3,5.44,180.8,M,-33.4,M,,*6C
$GPGGA,042121.400,3852.1825,N,07716.5175,W,1,3,5.44,180.8,M,-33.4,M,,*63
$GPGGA,042121.600,3852.1823,N,07716.5177,W,1,3,5.44,180.8,M,-33.4,M,,*65
$GPGGA,042121.800,3852.1822,N,07716.5179,W,1,3,5.44,180.7,M,-33.4,M,,*6B
$GPGGA,042122.000,3852.1821,N,07716.5180,W,1,3,5.44,180.7,M,-33.4,M,,*65
$GPGGA,042122.200,3852.1820,N,07716.5181,W,1,3,5.44,180.6,M,-33.4,M,,*66
$GPGGA,042122.400,3852.1818,N,07716.5182,W,1,3,5.44,180.6,M,-33.4,M,,*68
$GPGGA,042122.600,3852.1817,N,07716.5183,W,1,3,5.44,180.5,M,-33.4,M,,*67
$GPGGA,042122.800,3852.1812,N,07716.5185,W,1,3,5.44,180.5,M,-33.4,M,,*6A
$GPGGA,042123.000,3852.1806,N,07716.5189,W,1,3,5.44,180.4,M,-33.4,M,,*6B
$GPGGA,042123.200,3852.1802,N,07716.5192,W,1,3,5.44,180.4,M,-33.4,M,,*67
$GPGGA,042123.400,3852.1798,N,07716.5196,W,1,3,5.44,180.4,M,-33.4,M,,*69
$GPGGA,042123.600,3852.1795,N,07716.5199,W,1,3,5.44,180.3,M,-33.4,M,,*6E
$GPGGA,042123.800,3852.1791,N,07716.5202,W,1,3,5.44,180.3,M,-33.4,M,,*65
$GPGGA,042124.000,3852.1787,N,07716.5206,W,1,3,5.44,180.2,M,-33.4,M,,*68
$GPGGA,042124.200,3852.1782,N,07716.5210,W,1,3,5.44,180.2,M,-33.4,M,,*68
$GPGGA,042124.400,3852.1778,N,07716.5215,W,1,3,5.44,180.1,M,-33.4,M,,*6D
$GPGGA,042124.600,3852.1774,N,07716.5219,W,1,3,5.45,180.1,M,-33.4,M,,*6E
$GPGGA,042124.800,3852.1769,N,07716.5223,W,1,3,5.44,180.0,M,-33.4,M,,*65
$GPGGA,042125.000,3852.1764,N,07716.5228,W,1,3,5.44,180.0,M,-33.4,M,,*6A
$GPGGA,042125.200,3852.1759,N,07716.5233,W,1,3,5.44,179.9,M,-33.4,M,,*63
$GPGGA,042125.400,3852.1756,N,07716.5237,W,1,3,5.44,179.9,M,-33.4,M,,*6E
$GPGGA,042125.600,3852.1751,N,07716.5242,W,1,3,5.44,179.8,M,-33.4,M,,*68
$GPGGA,042125.800,3852.1747,N,07716.5247,W,1,3,5.44,179.8,M,-33.4,M,,*64
$GPGGA,042126.142,3852.1740,N,07716.5257,W,1,3,5.45,179.7,M,-33.4,M,,*60
$GPGGA,042126.400,3852.1735,N,07716.5263,W,1,3,5.44,179.7,M,-33.4,M,,*67
$GPGGA,042126.600,3852.1731,N,07716.5269,W,1,3,5.45,179.6,M,-33.4,M,,*6B
$GPGGA,042126.800,3852.1726,N,07716.5275,W,1,3,5.45,179.6,M,-33.4,M,,*6E
$GPGGA,042127.000,3852.1721,N,07716.5281,W,1,3,5.45,179.5,M,-33.4,M,,*68
$GPGGA,042127.200,3852.1714,N,07716.5287,W,1,3,5.45,179.5,M,-33.4,M,,*6A
$GPGGA,042127.400,3852.1708,N,07716.5294,W,1,3,5.45,179.4,M,-33.4,M,,*62
$GPGGA,042127.600,3852.1703,N,07716.5299,W,1,3,5.45,179.4,M,-33.4,M,,*66
$GPGGA,042127.800,3852.1695,N,07716.5305,W,1,3,5.45,179.3,M,-33.4,M,,*65
$GPGGA,042128.000,3852.1688,N,07716.5311,W,1,3,5.45,179.3,M,-33.4,M,,*6B
$GPGGA,042128.200,3852.1681,N,07716.5317,W,1,3,5.45,179.2,M,-33.4,M,,*67
$GPGGA,042128.400,3852.1676,N,07716.5323,W,1,3,5.45,179.2,M,-33.4,M,,*6E
$GPGGA,042128.600,3852.1670,N,07716.5329,W,1,3,5.45,179.1,M,-33.4,M,,*63
$GPGGA,042128.800,3852.1664,N,07716.5335,W,1,3,5.45,179.1,M,-33.4,M,,*65
$GPGGA,042129.000,3852.1657,N,07716.5340,W,1,3,5.45,179.0,M,-33.4,M,,*6F
$GPGGA,042129.200,3852.1651,N,07716.5346,W,1,3,5.45,179.0,M,-33.4,M,,*6D
$GPGGA,042129.400,3852.1645,N,07716.5351,W,1,3,5.45,179.0,M,-33.4,M,,*68
$GPGGA,042129.600,3852.1639,N,07716.5357,W,1,3,5.45,178.9,M,-33.4,M,,*6F
$GPGGA,042129.800,3852.1634,N,07716.5363,W,1,3,5.45,178.9,M,-33.4,M,,*6B
$GPGGA,042130.000,3852.1628,N,07716.5369,W,1,3,5.45,178.8,M,-33.4,M,,*6D
$GPGGA,042130.200,3852.1622,N,07716.5374,W,1,3,5.45,178.8,M,-33.4,M,,*69
$GPGGA,042130.400,3852.1618,N,07716.5379,W,1,3,5.45,178.7,M,-33.4,M,,*64
$GPGGA,042130.600,3852.1613,N,07716.5384,W,1,3,5.46,178.7,M,-33.4,M,,*6C
$GPGGA,042130.800,3852.1608,N,07716.5389,W,1,3,5.45,178.6,M,-33.4,M,,*67
$GPGGA,042131.000,3852.1602,N,07716.5393,W,1,3,5.45,178.6,M,-33.4,M,,*6F
$GPGGA,042131.200,3852.1595,N,07716.5397,W,1,3,5.46,178.5,M,-33.4,M,,*64
$GPGGA,042131.400,3852.1590,N,07716.5401,W,1,3,5.45,178.5,M,-33.4,M,,*6C
$GPGGA,042131.600,3852.1585,N,07716.5405,W,1,3,5.45,178.4,M,-33.4,M,,*6F
$GPGGA,042131.800,3852.1580,N,07716.5408,W,1,3,5.45,178.4,M,-33.4,M,,*69
$GPGGA,042132.142,3852.1573,N,07716.5411,W,1,3,5.46,178.3,M,-33.4,M,,*65
$GPGGA,042132.400,3852.1565,N,07716.5413,W,1,3,5.46,178.3,M,-33.4,M,,*63
$GPGGA,042132.600,3852.1561,N,07716.5415,W,1,3,5.45,178.2,M,-33.4,M,,*61
$GPGGA,042132.800,3852.1557,N,07716.5416,W,1,3,5.45,178.2,M,-33.4,M,,*69
$GPGGA,042133.000,3852.1553,N,07716.5416,W,1,3,5.45,178.1,M,-33.4,M,,*67
$GPGGA,042133.200,3852.1546,N,07716.5416,W,1,3,5.45,178.1,M,-33.4,M,,*61
$GPGGA,042133.400,3852.1538,N,07716.5416,W,1,3,5.46,178.1,M,-33.4,M,,*6D
$GPGGA,042133.600,3852.1532,N,07716.5415,W,1,3,5.46,178.0,M,-33.4,M,,*67
$GPGGA,042133.800,3852.1528,N,07716.5415,W,1,3,5.45,178.0,M,-33.4,M,,*61
$GPGGA,042134.000,3852.1526,N,07716.5414,W,1,3,5.46,177.9,M,-33.4,M,,*64
$GPGGA,042134.200,3852.1524,N,07716.5413,W,1,3,5.46,177.9,M,-33.4,M,,*63
$GPGGA,042134.400,3852.1522,N,07716.5412,W,1,3,5.45,177.9,M,-33.4,M,,*61
$GPGGA,042134.600,3852.1520,N,07716.5411,W,1,3,5.46,177.8,M,-33.4,M,,*60
$GPGGA,042134.800,3852.1516,N,07716.5411,W,1,3,5.46,177.8,M,-33.4,M,,*6B
$GPGGA,042135.000,3852.1513,N,07716.5410,W,1,3,5.46,177.8,M,-33.4,M,,*66
$GPGGA,042135.200,3852.1510,N,07716.5407,W,1,3,5.46,177.7,M,-33.4,M,,*6E
$GPGGA,042135.400,3852.1507,N,07716.5404,W,1,3,5.46,177.7,M,-33.4,M,,*6D
$GPGGA,042135.600,3852.1505,N,07716.5402,W,1,3,5.46,177.6,M,-33.4,M,,*6A
$GPGGA,042135.800,3852.1502,N,07716.5393,W,1,3,5.47,177.6,M,-33.4,M,,*6D
$GPGGA,042136.000,3852.1498,N,07716.5388,W,1,3,5.46,177.6,M,-33.4,M,,*6F
$GPGGA,042136.200,3852.1496,N,07716.5384,W,1,3,5.46,177.5,M,-33.4,M,,*6C
$GPGGA,042136.400,3852.1492,N,07716.5380,W,1,3,5.46,177.5,M,-33.4,M,,*6A
$GPGGA,042136.600,3852.1487,N,07716.5377,W,1,3,5.46,177.5,M,-33.4,M,,*64
$GPGGA,042136.800,3852.1482,N,07716.5375,W,1,3,5.46,177.4,M,-33.4,M,,*6C
$GPGGA,042137.000,3852.1478,N,07716.5371,W,1,3,5.46,177.4,M,-33.4,M,,*64
$GPGGA,042137.200,3852.1473,N,07716.5368,W,1,3,5.46,177.3,M,-33.4,M,,*62
$GPGGA,042137.400,3852.1467,N,07716.5364,W,1,3,5.46,177.3,M,-33.4,M,,*6D
$GPGGA,042137.600,3852.1463,N,07716.5360,W,1,3,5.46,177.3,M,-33.4,M,,*6F
$GPGGA,042137.800,3852.1458,N,07716.5356,W,1,3,5.47,177.2,M,-33.4,M,,*6C
$GPGGA,042138.000,3852.1453,N,07716.5352,W,1,3,5.46,177.2,M,-33.4,M,,*65
$GPGGA,042138.400,3852.1441,N,07716.5340,W,1,3,5.46,177.1,M,-33.4,M,,*62
$GPGGA,042138.600,3852.1436,N,07716.5335,W,1,3,5.47,177.1,M,-33.4,M,,*63
$GPGGA,042138.800,3852.1430,N,07716.5330,W,1,3,5.46,177.0,M,-33.4,M,,*6E
$GPGGA,042139.000,3852.1425,N,07716.5324,W,1,3,5.46,177.0,M,-33.4,M,,*66
$GPGGA,042139.200,3852.1419,N,07716.5317,W,1,3,5.46,177.0,M,-33.4,M,,*6B
$GPGGA,042139.400,3852.1414,N,07716.5310,W,1,3,5.46,176.9,M,-33.4,M,,*6F
$GPGGA,042139.600,3852.1409,N,07716.5304,W,1,3,5.46,176.9,M,-33.4,M,,*64
$GPGGA,042139.800,3852.1404,N,07716.5297,W,1,3,5.47,176.8,M,-33.4,M,,*6C
$GPGGA,042140.000,3852.1398,N,07716.5290,W,1,3,5.47,176.8,M,-33.4,M,,*6F
$GPGGA,042140.200,3852.1392,N,07716.5283,W,1,3,5.47,176.8,M,-33.4,M,,*65
$GPGGA,042140.400,3852.1386,N,07716.5276,W,1,3,5.47,176.7,M,-33.4,M,,*63
$GPGGA,042140.600,3852.1381,N,07716.5269,W,1,3,5.47,176.7,M,-33.4,M,,*68
$GPGGA,042140.800,3852.1375,N,07716.5262,W,1,3,5.47,176.6,M,-33.4,M,,*67
$GPGGA,042141.000,3852.1370,N,07716.5255,W,1,3,5.47,176.6,M,-33.4,M,,*6F
$GPGGA,042141.200,3852.1365,N,07716.5248,W,1,3,5.47,176.6,M,-33.4,M,,*65
$GPGGA,042141.400,3852.1361,N,07716.5240,W,1,3,5.47,176.5,M,-33.4,M,,*6C
$GPGGA,042141.600,3852.1355,N,07716.5233,W,1,3,5.47,176.5,M,-33.4,M,,*6D
$GPGGA,042141.800,3852.1351,N,07716.5228,W,1,3,5.47,176.4,M,-33.4,M,,*6C
$GPGGA,042142.000,3852.1345,N,07716.5222,W,1,3,5.47,176.4,M,-33.4,M,,*68
$GPGGA,042142.200,3852.1340,N,07716.5218,W,1,3,5.47,176.4,M,-33.4,M,,*66
$GPGGA,042142.400,3852.1336,N,07716.5215,W,1,3,5.47,176.3,M,-33.4,M,,*6B
$GPGGA,042142.600,3852.1332,N,07716.5212,W,1,3,5.47,176.3,M,-33.4,M,,*6A
$GPGGA,042142.800,3852.1330,N,07716.5209,W,1,3,5.48,176.2,M,-33.4,M,,*62
$GPGGA,042143.000,3852.1335,N,07716.5206,W,1,3,5.47,176.2,M,-33.4,M,,*6E
$GPGGA,042143.200,3852.1335,N,07716.5203,W,1,3,5.47,176.2,M,-33.4,M,,*69
$GPGGA,042143.400,3852.1332,N,07716.5199,W,1,3,5.48,176.1,M,-33.4,M,,*64
$GPGGA,042143.600,3852.1329,N,07716.5195,W,1,3,5.47,176.1,M,-33.4,M,,*6F
$GPGGA,042143.800,3852.1326,N,07716.5191,W,1,3,5.47,176.0,M,-33.4,M,,*6B
$GPGGA,042144.000,3852.1326,N,07716.5188,W,1,3,5.47,176.0,M,-33.4,M,,*6C
$GPGGA,042144.400,3852.1329,N,07716.5184,W,1,3,5.48,175.9,M,-33.4,M,,*6E
$GPGGA,042144.600,3852.1326,N,07716.5180,W,1,3,5.47,175.9,M,-33.4,M,,*68
$GPGGA,042144.800,3852.1324,N,07716.5177,W,1,3,5.48,175.9,M,-33.4,M,,*63
$GPGGA,042145.000,3852.1322,N,07716.5174,W,1,3,5.47,175.8,M,-33.4,M,,*61
$GPGGA,042145.200,3852.1321,N,07716.5171,W,1,3,5.47,175.8,M,-33.4,M,,*65
$GPGGA,042145.400,3852.1320,N,07716.5168,W,1,3,5.48,175.8,M,-33.4,M,,*65
$GPGGA,042145.600,3852.1317,N,07716.5164,W,1,3,5.48,175.7,M,-33.4,M,,*60
$GPGGA,042145.800,3852.1315,N,07716.5161,W,1,3,5.48,175.7,M,-33.4,M,,*69
$GPGGA,042146.000,3852.1313,N,07716.5156,W,1,3,5.47,175.6,M,-33.4,M,,*6E
$GPGGA,042146.200,3852.1312,N,07716.5152,W,1,3,5.48,175.6,M,-33.4,M,,*66
$GPGGA,042146.400,3852.1311,N,07716.5147,W,1,3,5.48,175.6,M,-33.4,M,,*67
$GPGGA,042146.600,3852.1309,N,07716.5142,W,1,3,5.48,175.5,M,-33.4,M,,*6A
$GPGGA,042146.800,3852.1305,N,07716.5136,W,1,3,5.48,175.5,M,-33.4,M,,*6B
$GPGGA,042147.000,3852.1301,N,07716.5130,W,1,3,5.48,175.4,M,-33.4,M,,*61
$GPGGA,042147.200,3852.1297,N,07716.5124,W,1,3,5.48,175.4,M,-33.4,M,,*68
$GPGGA,042147.400,3852.1295,N,07716.5118,W,1,3,5.48,175.4,M,-33.4,M,,*63
$GPGGA,042147.600,3852.1292,N,07716.5112,W,1,3,5.47,175.3,M,-33.4,M,,*64
$GPGGA,042147.800,3852.1289,N,07716.5105,W,1,3,5.48,175.3,M,-33.4,M,,*69
$GPGGA,042148.000,3852.1286,N,07716.5098,W,1,3,5.48,175.3,M,-33.4,M,,*64
$GPGGA,042148.200,3852.1282,N,07716.5091,W,1,3,5.48,175.2,M,-33.4,M,,*6A
$GPGGA,042148.400,3852.1278,N,07716.5084,W,1,3,5.48,175.2,M,-33.4,M,,*6D
$GPGGA,042148.600,3852.1275,N,07716.5078,W,1,3,5.48,175.1,M,-33.4,M,,*62
$GPGGA,042148.800,3852.1272,N,07716.5070,W,1,3,5.48,175.1,M,-33.4,M,,*63
$GPGGA,042149.000,3852.1269,N,07716.5063,W,1,3,5.48,175.1,M,-33.4,M,,*62
$GPGGA,042149.200,3852.1265,N,07716.5057,W,1,3,5.48,175.0,M,-33.4,M,,*6A
$GPGGA,042149.400,3852.1263,N,07716.5050,W,1,3,5.48,175.0,M,-33.4,M,,*6D
$GPGGA,042149.600,3852.1260,N,07716.5043,W,1,3,5.48,174.9,M,-33.4,M,,*66
$GPGGA,042149.800,3852.1258,N,07716.5036,W,1,3,5.48,174.9,M,-33.4,M,,*61
$GPGGA,042150.000,3852.1254,N,07716.5030,W,1,3,5.48,174.9,M,-33.4,M,,*6B
$GPGGA,042150.095,3852.1253,N,07716.5026,W,1,3,5.48,174.8,M,-33.4,M,,*66
$GPGGA,042150.400,3852.1248,N,07716.5016,W,1,3,5.48,174.8,M,-33.4,M,,*67
$GPGGA,042150.600,3852.1246,N,07716.5010,W,1,3,5.48,174.7,M,-33.4,M,,*62
$GPGGA,042150.800,3852.1244,N,07716.5004,W,1,3,5.48,174.7,M,-33.4,M,,*6B
$GPGGA,042151.000,3852.1242,N,07716.4998,W,1,3,5.48,174.7,M,-33.4,M,,*69
$GPGGA,042151.200,3852.1239,N,07716.4992,W,1,3,5.48,174.6,M,-33.4,M,,*6C
$GPGGA,042151.400,3852.1238,N,07716.4988,W,1,3,5.48,174.6,M,-33.4,M,,*60
$GPGGA,042151.600,3852.1238,N,07716.4984,W,1,3,5.48,174.5,M,-33.4,M,,*6D
$GPGGA,042151.800,3852.1238,N,07716.4980,W,1,3,5.48,174.5,M,-33.4,M,,*67
$GPGGA,042152.000,3852.1236,N,07716.4977,W,1,3,5.49,174.5,M,-33.4,M,,*6B
$GPGGA,042152.200,3852.1236,N,07716.4976,W,1,3,5.48,174.4,M,-33.4,M,,*68
$GPGGA,042152.400,3852.1236,N,07716.4972,W,1,3,5.48,174.4,M,-33.4,M,,*6A
$GPGGA,042152.600,3852.1235,N,07716.4969,W,1,3,5.49,174.3,M,-33.4,M,,*67
$GPGGA,042152.800,3852.1233,N,07716.4967,W,1,3,5.49,174.3,M,-33.4,M,,*61
$GPGGA,042153.000,3852.1230,N,07716.4965,W,1,3,5.48,174.2,M,-33.4,M,,*69
$GPGGA,042153.200,3852.1229,N,07716.4963,W,1,3,5.49,174.2,M,-33.4,M,,*64
$GPGGA,042153.400,3852.1231,N,07716.4962,W,1,3,5.49,174.2,M,-33.4,M,,*6A
$GPGGA,042153.600,3852.1230,N,07716.4960,W,1,3,5.49,174.1,M,-33.4,M,,*68
$GPGGA,042153.800,3852.1228,N,07716.4958,W,1,3,5.49,174.1,M,-33.4,M,,*64
$GPGGA,042154.000,3852.1227,N,07716.4957,W,1,3,5.49,174.0,M,-33.4,M,,*6A
$GPGGA,042154.200,3852.1224,N,07716.4956,W,1,3,5.49,174.0,M,-33.4,M,,*6A
$GPGGA,042154.400,3852.1223,N,07716.4954,W,1,3,5.49,174.0,M,-33.4,M,,*69
$GPGGA,042154.600,3852.1221,N,07716.4953,W,1,3,5.48,173.9,M,-33.4,M,,*61
$GPGGA,042154.800,3852.1220,N,07716.4951,W,1,3,5.49,173.9,M,-33.4,M,,*6D
$GPGGA,042155.000,3852.1222,N,07716.4950,W,1,3,5.49,173.9,M,-33.4,M,,*67
$GPGGA,042155.200,3852.1220,N,07716.4948,W,1,3,5.49,173.8,M,-33.4,M,,*6F
$GPGGA,042155.400,3852.1216,N,07716.4946,W,1,3,5.49,173.8,M,-33.4,M,,*62
$GPGGA,042155.600,3852.1211,N,07716.4945,W,1,3,5.49,173.7,M,-33.4,M,,*6B
$GPGGA,042155.800,3852.1207,N,07716.4945,W,1,3,5.49,173.7,M,-33.4,M,,*62
$GPGGA,042156.000,3852.1203,N,07716.4943,W,1,3,5.49,173.7,M,-33.4,M,,*6B
$GPGGA,042156.095,3852.0975,N,07716.4990,W,1,4,2.30,169.6,M,-33.4,M,,*66
$GPGGA,042156.400,3852.0924,N,07716.4999,W,1,4,2.31,168.6,M,-33.4,M,,*63
$GPGGA,042156.600,3852.0907,N,07716.5002,W,1,4,2.30,168.2,M,-33.4,M,,*6F
$GPGGA,042156.800,3852.0894,N,07716.5003,W,1,4,2.30,168.0,M,-33.4,M,,*69
$GPGGA,042157.000,3852.0885,N,07716.5006,W,1,4,2.31,167.8,M,-33.4,M,,*63
$GPGGA,042157.200,3852.0877,N,07716.5008,W,1,4,2.30,167.6,M,-33.4,M,,*6D
$GPGGA,042157.400,3852.0868,N,07716.5009,W,1,4,2.31,167.5,M,-33.4,M,,*66
$GPGGA,042157.600,3852.0859,N,07716.5009,W,1,4,2.31,167.4,M,-33.4,M,,*67
$GPGGA,042157.800,3852.0845,N,07716.5010,W,1,4,2.30,167.1,M,-33.4,M,,*68
$GPGGA,042158.000,3852.0828,N,07716.5012,W,1,4,2.31,166.8,M,-33.4,M,,*6F
$GPGGA,042158.200,3852.0812,N,07716.5013,W,1,4,2.31,166.6,M,-33.4,M,,*6B
$GPGGA,042158.400,3852.0798,N,07716.5013,W,1,4,2.84,166.3,M,-33.4,M,,*6B
$GPGGA,042158.600,3852.0787,N,07716.5012,W,1,4,2.31,166.1,M,-33.4,M,,*6A
$GPGGA,042158.800,3852.0776,N,07716.5010,W,1,4,2.31,165.9,M,-33.4,M,,*63
$GPGGA,042159.000,3852.0768,N,07716.5007,W,1,4,2.31,165.8,M,-33.4,M,,*62
$GPGGA,042159.200,3852.0759,N,07716.5004,W,1,4,2.84,165.6,M,-33.4,M,,*61
$GPGGA,042159.400,3852.0750,N,07716.5001,W,1,4,2.31,165.5,M,-33.4,M,,*66
$GPGGA,042159.600,3852.0743,N,07716.4998,W,1,4,2.31,165.4,M,-33.4,M,,*6F
$GPGGA,042159.800,3852.0736,N,07716.4995,W,1,4,2.31,165.3,M,-33.4,M,,*69
$GPGGA,042200.000,3852.0729,N,07716.4990,W,1,4,2.31,165.1,M,-33.4,M,,*67
$GPGGA,042200.200,3852.0724,N,07716.4983,W,1,4,2.31,165.0,M,-33.4,M,,*6B
$GPGGA,042200.400,3852.0718,N,07716.4971,W,1,4,2.31,164.9,M,-33.4,M,,*67
$GPGGA,042200.600,3852.0712,N,07716.4964,W,1,4,2.31,164.8,M,-33.4,M,,*6A
$GPGGA,042200.800,3852.0706,N,07716.4955,W,1,4,2.31,164.7,M,-33.4,M,,*6C
$GPGGA,042201.000,3852.0700,N,07716.4945,W,1,4,2.31,164.5,M,-33.4,M,,*60
$GPGGA,042201.200,3852.0693,N,07716.4933,W,1,4,2.31,164.4,M,-33.4,M,,*69
$GPGGA,042201.400,3852.0686,N,07716.4921,W,1,4,2.31,164.2,M,-33.4,M,,*6E
$GPGGA,042201.600,3852.0680,N,07716.4909,W,1,4,2.31,164.1,M,-33.4,M,,*63
$GPGGA,042201.800,3852.0674,N,07716.4898,W,1,4,2.31,163.9,M,-33.4,M,,*60
$GPGGA,042202.000,3852.0668,N,07716.4887,W,1,4,2.31,163.7,M,-33.4,M,,*66
$GPGGA,042202.200,3852.0662,N,07716.4875,W,1,4,2.31,163.5,M,-33.4,M,,*61
$GPGGA,042202.400,3852.0656,N,07716.4863,W,1,4,2.31,163.4,M,-33.4,M,,*66
$GPGGA,042202.600,3852.0650,N,07716.4852,W,1,4,2.31,163.2,M,-33.4,M,,*66
$GPGGA,042202.800,3852.0645,N,07716.4840,W,1,4,2.31,163.1,M,-33.4,M,,*6C
$GPGGA,042203.000,3852.0638,N,07716.4827,W,1,4,2.31,163.0,M,-33.4,M,,*6F
$GPGGA,042203.200,3852.0632,N,07716.4813,W,1,4,2.31,162.9,M,-33.4,M,,*68
$GPGGA,042203.400,3852.0626,N,07716.4797,W,1,4,2.31,162.7,M,-33.4,M,,*66
$GPGGA,042203.600,3852.0619,N,07716.4782,W,1,4,2.31,162.6,M,-33.4,M,,*6D
$GPGGA,042203.800,3852.0613,N,07716.4768,W,1,4,2.31,162.5,M,-33.4,M,,*6E
$GPGGA,042204.000,3852.0606,N,07716.4753,W,1,4,2.31,162.3,M,-33.4,M,,*6B
$GPGGA,042204.200,3852.0599,N,07716.4738,W,1,4,2.31,162.2,M,-33.4,M,,*60
$GPGGA,042204.400,3852.0591,N,07716.4723,W,1,4,2.31,162.1,M,-33.4,M,,*67
$GPGGA,042204.600,3852.0584,N,07716.4710,W,1,4,2.31,162.0,M,-33.4,M,,*60
$GPGGA,042204.800,3852.0576,N,07716.4694,W,1,4,2.31,161.8,M,-33.4,M,,*65
$GPGGA,042205.000,3852.0567,N,07716.4679,W,1,4,2.31,161.7,M,-33.4,M,,*60
$GPGGA,042205.200,3852.0556,N,07716.4659,W,1,4,2.31,161.6,M,-33.4,M,,*63
$GPGGA,042205.400,3852.0546,N,07716.4641,W,1,4,2.31,161.4,M,-33.4,M,,*6F
$GPGGA,042205.600,3852.0537,N,07716.4625,W,1,4,2.31,161.3,M,-33.4,M,,*6E
$GPGGA,042205.800,3852.0529,N,07716.4610,W,1,4,2.31,161.1,M,-33.4,M,,*6B
$GPGGA,042206.000,3852.0521,N,07716.4595,W,1,4,2.84,161.0,M,-33.4,M,,*69
$GPGGA,042206.200,3852.0513,N,07716.4580,W,1,4,2.31,160.9,M,-33.4,M,,*68
$GPGGA,042206.400,3852.0506,N,07716.4566,W,1,4,2.85,160.8,M,-33.4,M,,*6C
$GPGGA,042206.600,3852.0499,N,07716.4551,W,1,4,2.31,160.7,M,-33.4,M,,*6D
$GPGGA,042206.800,3852.0493,N,07716.4537,W,1,4,2.31,160.6,M,-33.4,M,,*68
$GPGGA,042207.000,3852.0488,N,07716.4523,W,1,4,2.31,160.4,M,-33.4,M,,*6C
$GPGGA,042207.200,3852.0482,N,07716.4511,W,1,4,2.31,160.3,M,-33.4,M,,*62
$GPGGA,042207.400,3852.0477,N,07716.4498,W,1,4,2.85,160.1,M,-33.4,M,,*63
$GPGGA,042207.600,3852.0471,N,07716.4486,W,1,4,2.31,160.0,M,-33.4,M,,*66
$GPGGA,042207.800,3852.0466,N,07716.4474,W,1,4,2.31,159.8,M,-33.4,M,,*61
$GPGGA,042208.000,3852.0461,N,07716.4465,W,1,4,2.31,159.7,M,-33.4,M,,*6E
$GPGGA,042208.200,3852.0456,N,07716.4454,W,1,4,2.31,159.4,M,-33.4,M,,*69
$GPGGA,042208.400,3852.0452,N,07716.4443,W,1,4,2.31,159.2,M,-33.4,M,,*6B
$GPGGA,042208.600,3852.0447,N,07716.4432,W,1,4,2.31,159.0,M,-33.4,M,,*69
$GPGGA,042208.800,3852.0443,N,07716.4421,W,1,4,2.31,158.8,M,-33.4,M,,*68
$GPGGA,042209.000,3852.0440,N,07716.4411,W,1,4,2.85,158.5,M,-33.4,M,,*63
$GPGGA,042209.200,3852.0436,N,07716.4401,W,1,4,2.31,158.4,M,-33.4,M,,*6F
$GPGGA,042209.400,3852.0432,N,07716.4391,W,1,4,2.31,158.2,M,-33.4,M,,*65
$GPGGA,042209.600,3852.0428,N,07716.4381,W,1,4,2.31,158.0,M,-33.4,M,,*6F
$GPGGA,042209.800,3852.0424,N,07716.4371,W,1,4,2.31,157.8,M,-33.4,M,,*65
$GPGGA,042210.000,3852.0421,N,07716.4362,W,1,4,2.31,157.5,M,-33.4,M,,*6F
$GPGGA,042210.200,3852.0418,N,07716.4353,W,1,4,2.31,157.3,M,-33.4,M,,*63
$GPGGA,042210.400,3852.0414,N,07716.4344,W,1,4,2.31,157.1,M,-33.4,M,,*6D
$GPGGA,042210.600,3852.0411,N,07716.4336,W,1,4,2.31,157.0,M,-33.4,M,,*6E
$GPGGA,042210.800,3852.0408,N,07716.4328,W,1,4,2.31,156.8,M,-33.4,M,,*6E
$GPGGA,042211.000,3852.0406,N,07716.4320,W,1,4,2.31,156.6,M,-33.4,M,,*6F
$GPGGA,042211.200,3852.0403,N,07716.4312,W,1,4,2.31,156.4,M,-33.4,M,,*6B
$GPGGA,042211.400,3852.0401,N,07716.4305,W,1,4,2.85,156.1,M,-33.4,M,,*63
$GPGGA,042211.600,3852.0398,N,07716.4297,W,1,4,2.31,155.9,M,-33.4,M,,*68
$GPGGA,042211.800,3852.0396,N,07716.4290,W,1,4,2.31,155.7,M,-33.4,M,,*61
$GPGGA,042212.000,3852.0393,N,07716.4283,W,1,4,2.31,155.5,M,-33.4,M,,*6F
$GPGGA,042212.200,3852.0392,N,07716.4277,W,1,4,2.85,155.3,M,-33.4,M,,*6E
$GPGGA,042212.400,3852.0390,N,07716.4271,W,1,4,2.31,155.1,M,-33.4,M,,*61
$GPGGA,042212.600,3852.0387,N,07716.4265,W,1,4,2.31,154.9,M,-33.4,M,,*69
$GPGGA,042212.800,3852.0386,N,07716.4259,W,1,4,2.31,154.7,M,-33.4,M,,*67
$GPGGA,042213.000,3852.0383,N,07716.4254,W,1,4,2.31,154.6,M,-33.4,M,,*67
$GPGGA,042213.200,3852.0382,N,07716.4249,W,1,4,2.31,154.4,M,-33.4,M,,*6A
$GPGGA,042213.400,3852.0380,N,07716.4244,W,1,4,2.85,154.3,M,-33.4,M,,*6B
$GPGGA,042213.600,3852.0378,N,07716.4238,W,1,4,2.31,154.1,M,-33.4,M,,*68
$GPGGA,042213.800,3852.0377,N,07716.4234,W,1,4,2.31,154.0,M,-33.4,M,,*64
$GPGGA,042214.000,3852.0376,N,07716.4231,W,1,4,2.31,153.9,M,-33.4,M,,*61
$GPGGA,042214.200,3852.0375,N,07716.4228,W,1,4,2.85,153.7,M,-33.4,M,,*69
$GPGGA,042214.400,3852.0375,N,07716.4225,W,1,4,2.85,153.5,M,-33.4,M,,*60
$GPGGA,042214.600,3852.0374,N,07716.4221,W,1,4,2.31,153.4,M,-33.4,M,,*69
$GPGGA,042214.800,3852.0374,N,07716.4219,W,1,4,2.31,153.2,M,-33.4,M,,*6A
$GPGGA,042215.000,3852.0373,N,07716.4217,W,1,4,2.31,153.1,M,-33.4,M,,*69
$GPGGA,042215.200,3852.0372,N,07716.4215,W,1,4,2.86,152.9,M,-33.4,M,,*6D
$GPGGA,042215.400,3852.0371,N,07716.4213,W,1,4,2.31,152.8,M,-33.4,M,,*63
$GPGGA,042215.600,3852.0370,N,07716.4212,W,1,4,2.31,152.6,M,-33.4,M,,*6F
$GPGGA,042215.800,3852.0369,N,07716.4210,W,1,4,2.31,152.5,M,-33.4,M,,*68
$GPGGA,042216.000,3852.0368,N,07716.4209,W,1,4,2.31,152.4,M,-33.4,M,,*6B
$GPGGA,042216.200,3852.0368,N,07716.4208,W,1,4,2.31,152.3,M,-33.4,M,,*6F
$GPGGA,042216.400,3852.0368,N,07716.4208,W,1,4,2.86,152.1,M,-33.4,M,,*67
$GPGGA,042216.600,3852.0368,N,07716.4208,W,1,4,2.31,152.0,M,-33.4,M,,*68
$GPGGA,042216.800,3852.0368,N,07716.4208,W,1,4,2.31,151.9,M,-33.4,M,,*6C
$GPGGA,042217.000,3852.0369,N,07716.4209,W,1,4,2.31,151.7,M,-33.4,M,,*6B
$GPGGA,042217.200,3852.0369,N,07716.4209,W,1,4,2.31,151.6,M,-33.4,M,,*68
$GPGGA,042217.400,3852.0370,N,07716.4210,W,1,4,2.31,151.5,M,-33.4,M,,*6D
$GPGGA,042217.600,3852.0370,N,07716.4210,W,1,4,2.31,151.3,M,-33.4,M,,*69
$GPGGA,042217.800,3852.0371,N,07716.4211,W,1,4,2.31,151.2,M,-33.4,M,,*66
$GPGGA,042218.000,3852.0372,N,07716.4212,W,1,4,2.31,151.0,M,-33.4,M,,*63
$GPGGA,042218.200,3852.0372,N,07716.4213,W,1,4,2.31,150.9,M,-33.4,M,,*68
$GPGGA,042218.400,3852.0372,N,07716.4213,W,1,4,2.31,150.8,M,-33.4,M,,*6F
$GPGGA,042218.600,3852.0373,N,07716.4213,W,1,4,2.31,150.7,M,-33.4,M,,*63
$GPGGA,042218.800,3852.0373,N,07716.4213,W,1,4,2.31,150.6,M,-33.4,M,,*6C
$GPGGA,042219.000,3852.0373,N,07716.4213,W,1,4,2.31,150.6,M,-33.4,M,,*65
$GPGGA,042219.200,3852.0373,N,07716.4213,W,1,4,2.31,150.6,M,-33.4,M,,*67
$GPGGA,042219.400,3852.0373,N,07716.4213,W,1,4,2.31,150.6,M,-33.4,M,,*61
$GPGGA,042219.600,3852.0373,N,07716.4213,W,1,4,2.31,150.5,M,-33.4,M,,*60
$GPGGA,042219.800,3852.0373,N,07716.4213,W,1,4,2.31,150.5,M,-33.4,M,,*6E
$GPGGA,042220.000,3852.0373,N,07716.4213,W,1,4,2.31,150.5,M,-33.4,M,,*6C
$GPGGA,042220.200,3852.0373,N,07716.4212,W,1,4,2.31,150.5,M,-33.4,M,,*6F
$GPGGA,042220.400,3852.0373,N,07716.4212,W,1,4,2.31,150.4,M,-33.4,M,,*68
$GPGGA,042220.600,3852.0373,N,07716.4212,W,1,4,2.31,150.4,M,-33.4,M,,*6A
$GPGGA,042220.800,3852.0372,N,07716.4212,W,1,4,2.31,150.3,M,-33.4,M,,*62
$GPGGA,042221.000,3852.0372,N,07716.4212,W,1,4,2.31,150.3,M,-33.4,M,,*6B
$GPGGA,042221.200,3852.0372,N,07716.4212,W,1,4,2.31,150.3,M,-33.4,M,,*69
$GPGGA,042221.400,3852.0372,N,07716.4212,W,1,4,2.31,150.3,M,-33.4,M,,*6F
$GPGGA,042221.600,3852.0372,N,07716.4212,W,1,4,2.31,150.2,M,-33.4,M,,*6C
$GPGGA,042221.800,3852.0372,N,07716.4211,W,1,4,2.31,150.2,M,-33.4,M,,*61
$GPGGA,042222.000,3852.0371,N,07716.4211,W,1,4,2.31,150.2,M,-33.4,M,,*69
$GPGGA,042222.200,3852.0371,N,07716.4211,W,1,4,2.31,150.2,M,-33.4,M,,*6B
$GPGGA,042222.400,3852.0371,N,07716.4211,W,1,4,2.31,150.2,M,-33.4,M,,*6D
$GPGGA,042222.600,3852.0371,N,07716.4211,W,1,4,2.31,150.2,M,-33.4,M,,*6F
$GPGGA,042222.800,3852.0371,N,07716.4211,W,1,4,2.31,150.2,M,-33.4,M,,*61
$GPGGA,042223.000,3852.0371,N,07716.4211,W,1,4,2.31,150.1,M,-33.4,M,,*6B
$GPGGA,042223.200,3852.0371,N,07716.4211,W,1,4,2.31,150.1,M,-33.4,M,,*69
$GPGGA,042223.400,3852.0371,N,07716.4211,W,1,4,2.31,150.1,M,-33.4,M,,*6F
$GPGGA,042223.600,3852.0370,N,07716.4211,W,1,4,2.32,150.1,M,-33.4,M,,*6F
$GPGGA,042223.800,3852.0370,N,07716.4211,W,1,4,2.31,150.1,M,-33.4,M,,*62
$GPGGA,042224.000,3852.0370,N,07716.4211,W,1,4,2.31,150.1,M,-33.4,M,,*6D
$GPGGA,042224.200,3852.0370,N,07716.4211,W,1,4,2.31,150.1,M,-33.4,M,,*6F
$GPGGA,042224.400,3852.0370,N,07716.4211,W,1,4,2.31,150.1,M,-33.4,M,,*69
$GPGGA,042224.600,3852.0370,N,07716.4211,W,1,4,2.32,150.1,M,-33.4,M,,*68
$GPGGA,042224.800,3852.0370,N,07716.4211,W,1,4,2.32,150.0,M,-33.4,M,,*67
$GPGGA,042225.000,3852.0370,N,07716.4211,W,1,4,2.31,150.0,M,-33.4,M,,*6D
$GPGGA,042225.200,3852.0370,N,07716.4211,W,1,4,2.31,150.0,M,-33.4,M,,*6F
$GPGGA,042225.400,3852.0370,N,07716.4211,W,1,4,2.32,150.0,M,-33.4,M,,*6A
$GPGGA,042225.600,3852.0370,N,07716.4211,W,1,4,2.32,150.0,M,-33.4,M,,*68
$GPGGA,042225.800,3852.0370,N,07716.4211,W,1,4,2.32,150.0,M,-33.4,M,,*66
$GPGGA,042226.000,3852.0370,N,07716.4211,W,1,4,2.32,150.0,M,-33.4,M,,*6D
$GPGGA,042226.200,3852.0370,N,07716.4211,W,1,5,1.77,150.0,M,-33.4,M,,*6C
$GPGGA,042226.400,3852.0370,N,07716.4211,W,1,5,1.77,150.0,M,-33.4,M,,*6A
$GPGGA,042226.600,3852.0370,N,07716.4211,W,1,5,1.77,150.0,M,-33.4,M,,*68
$GPGGA,042226.800,3852.0370,N,07716.4211,W,1,5,1.77,150.0,M,-33.4,M,,*66
$GPGGA,042227.000,3852.0370,N,07716.4212,W,1,5,1.77,150.0,M,-33.4,M,,*6C
$GPGGA,042227.200,3852.0370,N,07716.4212,W,1,5,1.77,150.0,M,-33.4,M,,*6E
$GPGGA,042227.400,3852.0370,N,07716.4212,W,1,5,1.77,150.0,M,-33.4,M,,*68
$GPGGA,042227.600,3852.0370,N,07716.4212,W,1,5,1.77,150.0,M,-33.4,M,,*6A
$GPGGA,042227.800,3852.0370,N,07716.4212,W,1,5,1.77,150.0,M,-33.4,M,,*64
$GPGGA,042228.000,3852.0369,N,07716.4212,W,1,5,1.77,150.0,M,-33.4,M,,*6B
$GPGGA,042228.200,3852.0369,N,07716.4212,W,1,5,1.77,150.0,M,-33.4,M,,*69
$GPGGA,042228.400,3852.0369,N,07716.4212,W,1,5,1.77,150.0,M,-33.4,M,,*6F
$GPGGA,042228.600,3852.0369,N,07716.4212,W,1,5,1.77,149.9,M,-33.4,M,,*6C
$GPGGA,042228.800,3852.0369,N,07716.4212,W,1,5,1.77,149.9,M,-33.4,M,,*62
$GPGGA,042229.000,3852.0369,N,07716.4211,W,1,5,1.77,149.9,M,-33.4,M,,*68
$GPGGA,042229.200,3852.0369,N,07716.4211,W,1,5,1.77,149.9,M,-33.4,M,,*6A
$GPGGA,042229.400,3852.0369,N,07716.4211,W,1,5,1.77,149.9,M,-33.4,M,,*6C
$GPGGA,042229.600,3852.0369,N,07716.4211,W,1,5,1.77,149.9,M,-33.4,M,,*6E
$GPGGA,042229.800,3852.0369,N,07716.4211,W,1,5,1.77,149.9,M,-33.4,M,,*60
$GPGGA,042230.000,3852.0369,N,07716.4211,W,1,5,1.77,149.9,M,-33.4,M,,*60
$GPGGA,042230.200,3852.0369,N,07716.4211,W,1,5,1.77,149.9,M,-33.4,M,,*62
$GPGGA,042230.400,3852.0369,N,07716.4210,W,1,5,1.77,149.9,M,-33.4,M,,*65
$GPGGA,042230.600,3852.0369,N,07716.4210,W,1,5,1.77,149.9,M,-33.4,M,,*67
$GPGGA,042230.800,3852.0369,N,07716.4210,W,1,5,1.77,149.9,M,-33.4,M,,*69
$GPGGA,042231.000,3852.0369,N,07716.4210,W,1,5,1.77,149.9,M,-33.4,M,,*60
$GPGGA,042231.200,3852.0369,N,07716.4210,W,1,5,1.77,149.9,M,-33.4,M,,*62
$GPGGA,042231.400,3852.0369,N,07716.4210,W,1,5,1.77,149.9,M,-33.4,M,,*64
$GPGGA,042231.600,3852.0369,N,07716.4210,W,1,5,1.77,149.9,M,-33.4,M,,*66
$GPGGA,042231.800,3852.0369,N,07716.4210,W,1,5,1.77,149.9,M,-33.4,M,,*68
$GPGGA,042232.000,3852.0369,N,07716.4210,W,1,5,1.77,149.9,M,-33.4,M,,*63
$GPGGA,042232.200,3852.0369,N,07716.4210,W,1,5,1.77,149.9,M,-33.4,M,,*61
$GPGGA,042232.400,3852.0369,N,07716.4210,W,1,5,1.77,149.9,M,-33.4,M,,*67
$GPGGA,042232.600,3852.0369,N,07716.4210,W,1,5,1.77,149.9,M,-33.4,M,,*65
$GPGGA,042232.800,3852.0369,N,07716.4210,W,1,5,1.77,149.9,M,-33.4,M,,*6B
$GPGGA,042233.000,3852.0369,N,07716.4210,W,1,5,1.77,149.9,M,-33.4,M,,*62
$GPGGA,042233.200,3852.0369,N,07716.4210,W,1,5,1.77,149.9,M,-33.4,M,,*60
$GPGGA,042233.400,3852.0369,N,07716.4210,W,1,5,1.77,149.9,M,-33.4,M,,*66
$GPGGA,042233.600,3852.0369,N,07716.4210,W,1,5,1.77,149.9,M,-33.4,M,,*64
$GPGGA,042233.800,3852.0369,N,07716.4210,W,1,5,1.77,149.9,M,-33.4,M,,*6A
$GPGGA,042234.000,3852.0369,N,07716.4210,W,1,5,1.77,149.9,M,-33.4,M,,*65
$GPGGA,042234.200,3852.0369,N,07716.4211,W,1,5,1.77,149.9,M,-33.4,M,,*66
$GPGGA,042234.400,3852.0369,N,07716.4211,W,1,5,1.77,149.9,M,-33.4,M,,*60
$GPGGA,042234.600,3852.0369,N,07716.4211,W,1,5,1.77,149.9,M,-33.4,M,,*62
$GPGGA,042234.800,3852.0369,N,07716.4211,W,1,5,1.77,149.9,M,-33.4,M,,*6C
$GPGGA,042235.000,3852.0369,N,07716.4211,W,1,5,1.77,149.9,M,-33.4,M,,*65
$GPGGA,042235.200,3852.0369,N,07716.4211,W,1,5,1.77,149.9,M,-33.4,M,,*67
$GPGGA,042235.400,3852.0369,N,07716.4211,W,1,5,1.77,149.9,M,-33.4,M,,*61
$GPGGA,042235.600,3852.0369,N,07716.4211,W,1,5,1.77,149.9,M,-33.4,M,,*63
$GPGGA,042235.800,3852.0369,N,07716.4211,W,1,5,1.77,149.9,M,-33.4,M,,*6D
$GPGGA,042236.000,3852.0369,N,07716.4211,W,1,5,1.77,149.9,M,-33.4,M,,*66
$GPGGA,042236.200,3852.0369,N,07716.4211,W,1,5,1.77,149.9,M,-33.4,M,,*64
$GPGGA,042236.400,3852.0369,N,07716.4211,W,1,5,1.77,149.9,M,-33.4,M,,*62
$GPGGA,042236.600,3852.0369,N,07716.4211,W,1,5,1.77,149.9,M,-33.4,M,,*60
$GPGGA,042236.800,3852.0369,N,07716.4211,W,1,5,1.77,149.9,M,-33.4,M,,*6E
$GPGGA,042237.000,3852.0369,N,07716.4211,W,1,5,1.77,149.9,M,-33.4,M,,*67
$GPGGA,042237.200,3852.0369,N,07716.4211,W,1,5,1.77,149.9,M,-33.4,M,,*65
$GPGGA,042237.400,3852.0369,N,07716.4211,W,1,5,1.77,149.9,M,-33.4,M,,*63
$GPGGA,042237.600,3852.0369,N,07716.4211,W,1,5,1.77,149.9,M,-33.4,M,,*61
$GPGGA,042237.800,3852.0369,N,07716.4211,W,1,5,1.77,149.9,M,-33.4,M,,*6F
$GPGGA,042238.000,3852.0369,N,07716.4211,W,1,5,1.77,149.9,M,-33.4,M,,*68
$GPGGA,042238.200,3852.0369,N,07716.4211,W,1,5,1.77,149.9,M,-33.4,M,,*6A
$GPGGA,042238.400,3852.0369,N,07716.4211,W,1,5,1.77,149.9,M,-33.4,M,,*6C
$GPGGA,042238.600,3852.0369,N,07716.4211,W,1,5,1.77,149.9,M,-33.4,M,,*6E
$GPGGA,042238.800,3852.0369,N,07716.4211,W,1,5,1.77,149.9,M,-33.4,M,,*60
$GPGGA,042239.000,3852.0369,N,07716.4211,W,1,5,1.77,149.9,M,-33.4,M,,*69
$GPGGA,042239.200,3852.0369,N,07716.4211,W,1,5,1.77,149.9,M,-33.4,M,,*6B
$GPGGA,042239.400,3852.0369,N,07716.4211,W,1,5,1.77,149.9,M,-33.4,M,,*6D
$GPGGA,042239.600,3852.0369,N,07716.4211,W,1,5,1.77,149.9,M,-33.4,M,,*6F
$GPGGA,042239.800,3852.0369,N,07716.4211,W,1,5,1.77,149.9,M,-33.4,M,,*61
$GPGGA,042240.000,3852.0369,N,07716.4211,W,1,5,1.77,149.9,M,-33.4,M,,*67
$GPGGA,042240.200,3852.0369,N,07716.4211,W,1,5,1.77,149.9,M,-33.4,M,,*65
$GPGGA,042240.400,3852.0369,N,07716.4211,W,1,5,1.77,149.9,M,-33.4,M,,*63
$GPGGA,042240.600,3852.0369,N,07716.4211,W,1,5,1.77,149.8,M,-33.4,M,,*60
$GPGGA,042240.800,3852.0368,N,07716.4211,W,1,5,1.77,149.8,M,-33.4,M,,*6F
$GPGGA,042241.000,3852.0368,N,07716.4211,W,1,5,1.77,149.8,M,-33.4,M,,*66
$GPGGA,042241.200,3852.0368,N,07716.4211,W,1,5,1.77,149.8,M,-33.4,M,,*64
$GPGGA,042241.400,3852.0368,N,07716.4211,W,1,5,1.77,149.8,M,-33.4,M,,*62
$GPGGA,042241.600,3852.0368,N,07716.4211,W,1,5,1.77,149.8,M,-33.4,M,,*60
$GPGGA,042241.800,3852.0368,N,07716.4211,W,1,5,1.77,149.8,M,-33.4,M,,*6E
$GPGGA,042242.000,3852.0368,N,07716.4211,W,1,5,1.77,149.8,M,-33.4,M,,*65
$GPGGA,042242.200,3852.0368,N,07716.4211,W,1,5,1.77,149.8,M,-33.4,M,,*67
$GPGGA,042242.400,3852.0368,N,07716.4211,W,1,5,1.77,149.8,M,-33.4,M,,*61
$GPGGA,042242.600,3852.0368,N,07716.4211,W,1,5,1.77,149.8,M,-33.4,M,,*63
$GPGGA,042242.800,3852.0369,N,07716.4211,W,1,5,1.77,149.8,M,-33.4,M,,*6C
$GPGGA,042243.000,3852.0369,N,07716.4211,W,1,5,1.77,149.8,M,-33.4,M,,*65
$GPGGA,042243.200,3852.0369,N,07716.4211,W,1,5,1.77,149.8,M,-33.4,M,,*67
$GPGGA,042243.400,3852.0369,N,07716.4211,W,1,5,1.77,149.8,M,-33.4,M,,*61
$GPGGA,042243.600,3852.0369,N,07716.4211,W,1,5,1.77,149.8,M,-33.4,M,,*63
$GPGGA,042243.800,3852.0369,N,07716.4211,W,1,5,1.77,149.8,M,-33.4,M,,*6D
$GPGGA,042244.000,3852.0369,N,07716.4211,W,1,5,1.77,149.8,M,-33.4,M,,*62
$GPGGA,042244.200,3852.0369,N,07716.4211,W,1,5,1.77,149.8,M,-33.4,M,,*60
$GPGGA,042244.400,3852.0369,N,07716.4211,W,1,5,1.77,149.8,M,-33.4,M,,*66
$GPGGA,042244.600,3852.0369,N,07716.4211,W,1,5,1.77,149.8,M,-33.4,M,,*64
$GPGGA,042244.800,3852.0369,N,07716.4211,W,1,5,1.77,149.8,M,-33.4,M,,*6A
$GPGGA,042245.000,3852.0369,N,07716.4211,W,1,5,1.77,149.8,M,-33.4,M,,*63
$GPGGA,042245.200,3852.0369,N,07716.4211,W,1,5,1.77,149.8,M,-33.4,M,,*61
$GPGGA,042245.400,3852.0369,N,07716.4211,W,1,5,1.77,149.8,M,-33.4,M,,*67
$GPGGA,042245.600,3852.0369,N,07716.4210,W,1,5,1.77,149.8,M,-33.4,M,,*64
$GPGGA,042245.800,3852.0369,N,07716.4210,W,1,5,1.77,149.8,M,-33.4,M,,*6A
$GPGGA,042246.000,3852.0369,N,07716.4209,W,1,5,1.77,149.8,M,-33.4,M,,*69
$GPGGA,042246.200,3852.0369,N,07716.4201,W,1,5,1.77,149.8,M,-33.4,M,,*63
$GPGGA,042246.400,3852.0368,N,07716.4194,W,1,5,1.77,149.8,M,-33.4,M,,*6B
$GPGGA,042246.600,3852.0366,N,07716.4187,W,1,5,1.77,149.8,M,-33.4,M,,*65
$GPGGA,042246.800,3852.0366,N,07716.4179,W,1,5,1.77,149.5,M,-33.4,M,,*67
$GPGGA,042247.000,3852.0366,N,07716.4171,W,1,5,1.77,149.2,M,-33.4,M,,*61
$GPGGA,042247.200,3852.0366,N,07716.4162,W,1,5,1.77,148.9,M,-33.4,M,,*6B
$GPGGA,042247.400,3852.0365,N,07716.4151,W,1,5,1.77,148.5,M,-33.4,M,,*62
$GPGGA,042247.600,3852.0366,N,07716.4142,W,1,5,1.77,148.2,M,-33.4,M,,*66
$GPGGA,042247.800,3852.0366,N,07716.4132,W,1,5,1.77,148.0,M,-33.4,M,,*6D
$GPGGA,042248.000,3852.0366,N,07716.4121,W,1,5,1.77,147.8,M,-33.4,M,,*6F
$GPGGA,042248.200,3852.0365,N,07716.4111,W,1,5,1.77,147.6,M,-33.4,M,,*63
$GPGGA,042248.400,3852.0364,N,07716.4100,W,1,5,1.77,147.6,M,-33.4,M,,*64
$GPGGA,042248.600,3852.0363,N,07716.4090,W,1,5,1.77,147.5,M,-33.4,M,,*6A
$GPGGA,042248.800,3852.0362,N,07716.4076,W,1,5,1.77,147.5,M,-33.4,M,,*6D
$GPGGA,042249.000,3852.0365,N,07716.4061,W,1,5,1.77,147.4,M,-33.4,M,,*64
$GPGGA,042249.200,3852.0365,N,07716.4047,W,1,5,1.77,147.3,M,-33.4,M,,*65
$GPGGA,042249.400,3852.0365,N,07716.4032,W,1,5,1.77,147.3,M,-33.4,M,,*61
$GPGGA,042249.600,3852.0368,N,07716.4019,W,1,5,1.77,147.3,M,-33.4,M,,*67
$GPGGA,042249.800,3852.0368,N,07716.4004,W,1,5,1.77,147.2,M,-33.4,M,,*64
$GPGGA,042250.000,3852.0370,N,07716.3990,W,1,5,1.77,147.2,M,-33.4,M,,*6E
$GPGGA,042250.200,3852.0372,N,07716.3975,W,1,5,1.77,147.0,M,-33.4,M,,*67
$GPGGA,042250.400,3852.0378,N,07716.3959,W,1,5,1.77,146.8,M,-33.4,M,,*6C
$GPGGA,042250.600,3852.0383,N,07716.3943,W,1,5,1.77,146.6,M,-33.4,M,,*6F
$GPGGA,042250.800,3852.0387,N,07716.3928,W,1,5,1.77,146.4,M,-33.4,M,,*6A
$GPGGA,042251.000,3852.0393,N,07716.3913,W,1,5,1.77,146.3,M,-33.4,M,,*69
$GPGGA,042251.200,3852.0400,N,07716.3898,W,1,5,1.77,146.2,M,-33.4,M,,*65
$GPGGA,042251.400,3852.0410,N,07716.3883,W,1,5,1.77,146.1,M,-33.4,M,,*6B
$GPGGA,042251.600,3852.0421,N,07716.3869,W,1,5,1.77,146.1,M,-33.4,M,,*6F
$GPGGA,042251.800,3852.0427,N,07716.3852,W,1,5,1.77,146.0,M,-33.4,M,,*6E
$GPGGA,042252.000,3852.0434,N,07716.3836,W,1,5,1.77,145.9,M,-33.4,M,,*6F
$GPGGA,042252.200,3852.0441,N,07716.3820,W,1,5,1.77,145.9,M,-33.4,M,,*68
$GPGGA,042252.400,3852.0448,N,07716.3804,W,1,5,1.77,145.8,M,-33.4,M,,*60
$GPGGA,042252.600,3852.0455,N,07716.3788,W,1,5,1.77,145.7,M,-33.4,M,,*6A
$GPGGA,042252.800,3852.0462,N,07716.3772,W,1,5,1.77,145.7,M,-33.4,M,,*65
$GPGGA,042253.000,3852.0471,N,07716.3756,W,1,5,1.77,145.5,M,-33.4,M,,*6A
$GPGGA,042253.200,3852.0480,N,07716.3740,W,1,5,1.77,145.4,M,-33.4,M,,*60
$GPGGA,042253.400,3852.0490,N,07716.3724,W,1,5,1.77,145.4,M,-33.4,M,,*65
$GPGGA,042253.600,3852.0500,N,07716.3707,W,1,5,1.77,145.3,M,-33.4,M,,*69
$GPGGA,042253.800,3852.0510,N,07716.3690,W,1,5,1.77,145.2,M,-33.4,M,,*68
$GPGGA,042254.000,3852.0527,N,07716.3673,W,1,5,1.77,144.9,M,-33.4,M,,*64
$GPGGA,042254.200,3852.0541,N,07716.3655,W,1,5,1.77,144.8,M,-33.4,M,,*63
$GPGGA,042254.400,3852.0554,N,07716.3637,W,1,5,1.77,144.7,M,-33.4,M,,*6A
$GPGGA,042254.600,3852.0567,N,07716.3620,W,1,5,1.77,144.6,M,-33.4,M,,*6F
$GPGGA,042254.800,3852.0580,N,07716.3601,W,1,5,1.77,144.5,M,-33.4,M,,*68
$GPGGA,042255.000,3852.0592,N,07716.3583,W,1,5,1.77,144.4,M,-33.4,M,,*6A
$GPGGA,042255.200,3852.0604,N,07716.3565,W,1,5,1.77,144.4,M,-33.4,M,,*6C
$GPGGA,042255.400,3852.0617,N,07716.3547,W,1,5,1.77,144.3,M,-33.4,M,,*6F
$GPGGA,042255.600,3852.0629,N,07716.3529,W,1,5,1.77,144.2,M,-33.4,M,,*69
$GPGGA,042255.800,3852.0642,N,07716.3510,W,1,5,1.77,144.2,M,-33.4,M,,*60
$GPGGA,042256.000,3852.0654,N,07716.3491,W,1,5,1.77,144.0,M,-33.4,M,,*66
$GPGGA,042256.200,3852.0667,N,07716.3472,W,1,5,1.77,143.9,M,-33.4,M,,*67
$GPGGA,042256.400,3852.0680,N,07716.3452,W,1,5,1.77,143.7,M,-33.4,M,,*64
$GPGGA,042256.600,3852.0693,N,07716.3433,W,1,5,1.77,143.6,M,-33.4,M,,*62
$GPGGA,042256.800,3852.0706,N,07716.3412,W,1,5,1.77,143.5,M,-33.4,M,,*61
$GPGGA,042257.000,3852.0719,N,07716.3391,W,1,5,1.77,143.4,M,-33.4,M,,*6B
$GPGGA,042257.200,3852.0732,N,07716.3371,W,1,5,1.77,143.3,M,-33.4,M,,*69
$GPGGA,042257.400,3852.0746,N,07716.3351,W,1,5,1.77,143.3,M,-33.4,M,,*6E
$GPGGA,042257.600,3852.0760,N,07716.3332,W,1,5,1.77,143.2,M,-33.4,M,,*6C
$GPGGA,042257.800,3852.0774,N,07716.3312,W,1,5,1.77,143.2,M,-33.4,M,,*65
$GPGGA,042258.000,3852.0790,N,07716.3296,W,1,5,1.77,143.2,M,-33.4,M,,*65
$GPGGA,042258.200,3852.0805,N,07716.3278,W,1,5,1.77,143.2,M,-33.4,M,,*64
$GPGGA,042258.400,3852.0820,N,07716.3260,W,1,5,1.77,143.2,M,-33.4,M,,*6C
$GPGGA,042258.600,3852.0834,N,07716.3241,W,1,5,1.77,143.2,M,-33.4,M,,*68
$GPGGA,042258.800,3852.0849,N,07716.3222,W,1,5,1.77,143.2,M,-33.4,M,,*69
$GPGGA,042259.000,3852.0863,N,07716.3203,W,1,5,1.77,143.2,M,-33.4,M,,*6B
$GPGGA,042259.200,3852.0879,N,07716.3185,W,1,5,1.77,143.2,M,-33.4,M,,*6F
$GPGGA,042259.400,3852.0895,N,07716.3167,W,1,5,1.77,143.2,M,-33.4,M,,*67
$GPGGA,042259.600,3852.0910,N,07716.3149,W,1,5,1.76,143.3,M,-33.4,M,,*65
$GPGGA,042259.800,3852.0926,N,07716.3131,W,1,5,1.77,143.3,M,-33.4,M,,*60
$GPGGA,042300.000,3852.0941,N,07716.3113,W,1,5,1.77,143.3,M,-33.4,M,,*64
$GPGGA,042300.200,3852.0957,N,07716.3094,W,1,5,1.77,143.1,M,-33.4,M,,*6D
$GPGGA,042300.400,3852.0971,N,07716.3076,W,1,5,1.77,143.1,M,-33.4,M,,*63
$GPGGA,042300.600,3852.0986,N,07716.3056,W,1,5,1.77,142.9,M,-33.4,M,,*62
$GPGGA,042300.800,3852.1001,N,07716.3037,W,1,5,1.77,142.8,M,-33.4,M,,*6D
$GPGGA,042301.000,3852.1016,N,07716.3018,W,1,5,1.77,142.8,M,-33.4,M,,*6F
$GPGGA,042301.200,3852.1031,N,07716.2998,W,1,5,1.77,142.7,M,-33.4,M,,*67
$GPGGA,042301.400,3852.1046,N,07716.2979,W,1,5,1.77,142.6,M,-33.4,M,,*6F
$GPGGA,042301.600,3852.1060,N,07716.2959,W,1,5,1.77,142.5,M,-33.4,M,,*68
$GPGGA,042301.800,3852.1074,N,07716.2940,W,1,5,1.77,142.4,M,-33.4,M,,*6A
