$GPGGA,230634.200,3852.1828,N,07716.5288,W,1,5,2.91,123.5,M,-33.4,M,,*60
$GPGGA,230634.400,3852.1827,N,07716.5289,W,1,5,2.91,123.4,M,-33.4,M,,*69
$GPGGA,230634.600,3852.1826,N,07716.5289,W,1,5,2.91,123.3,M,-33.4,M,,*6D
$GPGGA,230634.800,3852.1825,N,07716.5291,W,1,5,2.91,123.3,M,-33.4,M,,*69
$GPGGA,230635.000,3852.1823,N,07716.5292,W,1,5,2.91,123.2,M,-33.4,M,,*64
$GPGGA,230635.200,3852.1822,N,07716.5293,W,1,5,2.91,123.1,M,-33.4,M,,*65
$GPGGA,230635.400,3852.1821,N,07716.5294,W,1,5,2.91,123.1,M,-33.4,M,,*67
$GPGGA,230635.400,3852.1821,N,07716.5294,W,1,5,2.91,123.1,M,-33.4,M,,*67
$GPGGA,230635.600,3852.1821,N,07716.5295,W,1,5,2.91,123.1,M,-33.4,M,,*64
$GPGGA,230635.600,3852.1821,N,07716.5295,W,1,5,2.91,123.1,M,-33.4,M,,*64
$GPGGA,230635.800,3852.1821,N,07716.5295,W,1,5,2.91,123.1,M,-33.4,M,,*6A
$GPGGA,230635.800,3852.1821,N,07716.5295,W,1,5,2.91,123.1,M,-33.4,M,,*6A
$GPGGA,230636.000,3852.1820,N,07716.5295,W,1,5,2.92,123.1,M,-33.4,M,,*63
$GPGGA,230636.000,3852.1820,N,07716.5295,W,1,5,2.92,123.1,M,-33.4,M,,*63
$GPGGA,230636.200,3852.1820,N,07716.5296,W,1,5,2.91,123.0,M,-33.4,M,,*60
$GPGGA,230636.200,3852.1820,N,07716.5296,W,1,5,2.91,123.0,M,-33.4,M,,*60
$GPGGA,230636.400,3852.1824,N,07716.5291,W,1,5,2.91,123.0,M,-33.4,M,,*65
$GPGGA,230636.400,3852.1824,N,07716.5291,W,1,5,2.91,123.0,M,-33.4,M,,*65
$GPGGA,230636.600,3852.1823,N,07716.5292,W,1,5,2.91,122.9,M,-33.4,M,,*6B
$GPGGA,230636.600,3852.1823,N,07716.5292,W,1,5,2.91,122.9,M,-33.4,M,,*6B
$GPGGA,230636.800,3852.1822,N,07716.5292,W,1,5,2.91,122.9,M,-33.4,M,,*64
$GPGGA,230636.800,3852.1822,N,07716.5292,W,1,5,2.91,122.9,M,-33.4,M,,*64
$GPGGA,230637.000,3852.1822,N,07716.5293,W,1,5,2.91,122.8,M,-33.4,M,,*6D
$GPGGA,230637.000,3852.1822,N,07716.5293,W,1,5,2.91,122.8,M,-33.4,M,,*6D
$GPGGA,230637.200,3852.1821,N,07716.5293,W,1,5,2.91,122.8,M,-33.4,M,,*6C
$GPGGA,230637.200,3852.1821,N,07716.5293,W,1,5,2.91,122.8,M,-33.4,M,,*6C
$GPGGA,230637.400,3852.1820,N,07716.5294,W,1,5,2.91,122.7,M,-33.4,M,,*63
$GPGGA,230637.400,3852.1820,N,07716.5294,W,1,5,2.91,122.7,M,-33.4,M,,*63
$GPGGA,230637.600,3852.1819,N,07716.5294,W,1,5,2.91,122.7,M,-33.4,M,,*6B
$GPGGA,230637.600,3852.1819,N,07716.5294,W,1,5,2.91,122.7,M,-33.4,M,,*6B
$GPGGA,230637.800,3852.1819,N,07716.5295,W,1,5,2.91,122.6,M,-33.4,M,,*65
$GPGGA,230637.800,3852.1819,N,07716.5295,W,1,5,2.91,122.6,M,-33.4,M,,*65
$GPGGA,230638.000,3852.1818,N,07716.5295,W,1,5,2.91,122.5,M,-33.4,M,,*60
$GPGGA,230638.000,3852.1818,N,07716.5295,W,1,5,2.91,122.5,M,-33.4,M,,*60
$GPGGA,230638.200,3852.1817,N,07716.5296,W,1,5,2.91,122.5,M,-33.4,M,,*6E
$GPGGA,230638.200,3852.1817,N,07716.5296,W,1,5,2.91,122.5,M,-33.4,M,,*6E
$GPGGA,230638.400,3852.1816,N,07716.5296,W,1,5,2.91,122.4,M,-33.4,M,,*68
$GPGGA,230638.400,3852.1816,N,07716.5296,W,1,5,2.91,122.4,M,-33.4,M,,*68
$GPGGA,230638.600,3852.1816,N,07716.5297,W,1,5,2.91,122.4,M,-33.4,M,,*6B
$GPGGA,230638.600,3852.1816,N,07716.5297,W,1,5,2.91,122.4,M,-33.4,M,,*6B
$GPGGA,230638.800,3852.1815,N,07716.5297,W,1,5,2.91,122.3,M,-33.4,M,,*61
$GPGGA,230638.800,3852.1815,N,07716.5297,W,1,5,2.91,122.3,M,-33.4,M,,*61
$GPGGA,230639.000,3852.1814,N,07716.5298,W,1,5,2.91,122.3,M,-33.4,M,,*66
$GPGGA,230639.000,3852.1814,N,07716.5298,W,1,5,2.91,122.3,M,-33.4,M,,*66
$GPGGA,230639.200,3852.1813,N,07716.5298,W,1,5,2.91,122.2,M,-33.4,M,,*62
$GPGGA,230639.200,3852.1813,N,07716.5298,W,1,5,2.91,122.2,M,-33.4,M,,*62
$GPGGA,230639.400,3852.1812,N,07716.5299,W,1,5,2.91,122.2,M,-33.4,M,,*64
$GPGGA,230639.400,3852.1812,N,07716.5299,W,1,5,2.91,122.2,M,-33.4,M,,*64
$GPGGA,230639.600,3852.1812,N,07716.5299,W,1,5,2.91,122.2,M,-33.4,M,,*66
$GPGGA,230639.600,3852.1812,N,07716.5299,W,1,5,2.91,122.2,M,-33.4,M,,*66
$GPGGA,230639.800,3852.1812,N,07716.5299,W,1,5,2.91,122.2,M,-33.4,M,,*68
$GPGGA,230639.800,3852.1812,N,07716.5299,W,1,5,2.91,122.2,M,-33.4,M,,*68
$GPGGA,230640.000,3852.1812,N,07716.5299,W,1,5,2.91,122.2,M,-33.4,M,,*6E
$GPGGA,230640.000,3852.1812,N,07716.5299,W,1,5,2.91,122.2,M,-33.4,M,,*6E
$GPGGA,230640.200,3852.1812,N,07716.5299,W,1,5,2.91,122.2,M,-33.4,M,,*6C
$GPGGA,230640.200,3852.1812,N,07716.5299,W,1,5,2.91,122.2,M,-33.4,M,,*6C
$GPGGA,230640.400,3852.1812,N,07716.5299,W,1,5,2.91,122.2,M,-33.4,M,,*6A
$GPGGA,230640.400,3852.1812,N,07716.5299,W,1,5,2.91,122.2,M,-33.4,M,,*6A
$GPGGA,230640.600,3852.1812,N,07716.5299,W,1,5,2.91,122.2,M,-33.4,M,,*68
$GPGGA,230640.600,3852.1812,N,07716.5299,W,1,5,2.91,122.2,M,-33.4,M,,*68
$GPGGA,230640.800,3852.1812,N,07716.5299,W,1,5,2.91,122.2,M,-33.4,M,,*66
$GPGGA,230640.800,3852.1812,N,07716.5299,W,1,5,2.91,122.2,M,-33.4,M,,*66
$GPGGA,230641.000,3852.1812,N,07716.5299,W,1,5,2.91,122.2,M,-33.4,M,,*6F
$GPGGA,230641.000,3852.1812,N,07716.5299,W,1,5,2.91,122.2,M,-33.4,M,,*6F
$GPGGA,230641.200,3852.1812,N,07716.5299,W,1,5,2.91,122.2,M,-33.4,M,,*6D
$GPGGA,230641.200,3852.1812,N,07716.5299,W,1,5,2.91,122.2,M,-33.4,M,,*6D
$GPGGA,230641.400,3852.1812,N,07716.5299,W,1,5,2.91,122.2,M,-33.4,M,,*6B
$GPGGA,230641.400,3852.1812,N,07716.5299,W,1,5,2.91,122.2,M,-33.4,M,,*6B
$GPGGA,230641.600,3852.1812,N,07716.5299,W,1,5,2.91,122.2,M,-33.4,M,,*69
$GPGGA,230641.600,3852.1812,N,07716.5299,W,1,5,2.91,122.2,M,-33.4,M,,*69
$GPGGA,230641.800,3852.1812,N,07716.5299,W,1,5,2.91,122.2,M,-33.4,M,,*67
$GPGGA,230641.800,3852.1812,N,07716.5299,W,1,5,2.91,122.2,M,-33.4,M,,*67
$GPGGA,230642.000,3852.1812,N,07716.5299,W,1,5,2.91,122.2,M,-33.4,M,,*6C
$GPGGA,230642.000,3852.1812,N,07716.5299,W,1,5,2.91,122.2,M,-33.4,M,,*6C
$GPGGA,230642.200,3852.1812,N,07716.5299,W,1,5,2.91,122.2,M,-33.4,M,,*6E
$GPGGA,230642.200,3852.1812,N,07716.5299,W,1,5,2.91,122.2,M,-33.4,M,,*6E
$GPGGA,230642.400,3852.1812,N,07716.5299,W,1,5,2.91,122.2,M,-33.4,M,,*68
$GPGGA,230642.400,3852.1812,N,07716.5299,W,1,5,2.91,122.2,M,-33.4,M,,*68
$GPGGA,230642.600,3852.1812,N,07716.5299,W,1,5,2.91,122.2,M,-33.4,M,,*6A
$GPGGA,230642.600,3852.1812,N,07716.5299,W,1,5,2.91,122.2,M,-33.4,M,,*6A
$GPGGA,230642.800,3852.1812,N,07716.5299,W,1,5,2.91,122.2,M,-33.4,M,,*64
$GPGGA,230642.800,3852.1812,N,07716.5299,W,1,5,2.91,122.2,M,-33.4,M,,*64
$GPGGA,230643.000,3852.1812,N,07716.5299,W,1,5,3.20,122.2,M,-33.4,M,,*66
$GPGGA,230643.000,3852.1812,N,07716.5299,W,1,5,3.20,122.2,M,-33.4,M,,*66
$GPGGA,230643.200,3852.1812,N,07716.5299,W,1,5,2.91,122.2,M,-33.4,M,,*6F
$GPGGA,230643.200,3852.1812,N,07716.5299,W,1,5,2.91,122.2,M,-33.4,M,,*6F
$GPGGA,230643.400,3852.1812,N,07716.5299,W,1,5,2.91,122.2,M,-33.4,M,,*69
$GPGGA,230643.400,3852.1812,N,07716.5299,W,1,5,2.91,122.2,M,-33.4,M,,*69
$GPGGA,230643.600,3852.1812,N,07716.5299,W,1,5,2.91,122.2,M,-33.4,M,,*6B
$GPGGA,230643.600,3852.1812,N,07716.5299,W,1,5,2.91,122.2,M,-33.4,M,,*6B
$GPGGA,230643.800,3852.1812,N,07716.5299,W,1,5,2.91,122.2,M,-33.4,M,,*65
$GPGGA,230643.800,3852.1812,N,07716.5299,W,1,5,2.91,122.2,M,-33.4,M,,*65
$GPGGA,230644.000,3852.1812,N,07716.5299,W,1,5,2.91,122.2,M,-33.4,M,,*6A
$GPGGA,230644.000,3852.1812,N,07716.5299,W,1,5,2.91,122.2,M,-33.4,M,,*6A
$GPGGA,230644.200,3852.1812,N,07716.5299,W,1,5,2.91,122.2,M,-33.4,M,,*68
$GPGGA,230644.200,3852.1812,N,07716.5299,W,1,5,2.91,122.2,M,-33.4,M,,*68
$GPGGA,230644.400,3852.1812,N,07716.5299,W,1,5,2.91,122.2,M,-33.4,M,,*6E
$GPGGA,230644.400,3852.1812,N,07716.5299,W,1,5,2.91,122.2,M,-33.4,M,,*6E
$GPGGA,230644.600,3852.1812,N,07716.5299,W,1,5,2.91,122.2,M,-33.4,M,,*6C
$GPGGA,230644.600,3852.1812,N,07716.5299,W,1,5,2.91,122.2,M,-33.4,M,,*6C
$GPGGA,230644.800,3852.1812,N,07716.5299,W,1,5,2.91,122.2,M,-33.4,M,,*62
$GPGGA,230644.800,3852.1812,N,07716.5299,W,1,5,2.91,122.2,M,-33.4,M,,*62
$GPGGA,230645.000,3852.1812,N,07716.5299,W,1,5,2.91,122.2,M,-33.4,M,,*6B
$GPGGA,230645.000,3852.1812,N,07716.5299,W,1,5,2.91,122.2,M,-33.4,M,,*6B
$GPGGA,230645.200,3852.1812,N,07716.5299,W,1,5,2.91,122.2,M,-33.4,M,,*69
$GPGGA,230645.200,3852.1812,N,07716.5299,W,1,5,2.91,122.2,M,-33.4,M,,*69
$GPGGA,230645.400,3852.1812,N,07716.5299,W,1,5,2.91,122.2,M,-33.4,M,,*6F
$GPGGA,230645.400,3852.1812,N,07716.5299,W,1,5,2.91,122.2,M,-33.4,M,,*6F
$GPGGA,230645.600,3852.1812,N,07716.5299,W,1,5,2.91,122.2,M,-33.4,M,,*6D
$GPGGA,230645.600,3852.1812,N,07716.5299,W,1,5,2.91,122.2,M,-33.4,M,,*6D
$GPGGA,230645.800,3852.1812,N,07716.5299,W,1,5,2.91,122.2,M,-33.4,M,,*63
$GPGGA,230645.800,3852.1812,N,07716.5299,W,1,5,2.91,122.2,M,-33.4,M,,*63
$GPGGA,230646.000,3852.1812,N,07716.5299,W,1,5,2.91,122.2,M,-33.4,M,,*68
$GPGGA,230646.000,3852.1812,N,07716.5299,W,1,5,2.91,122.2,M,-33.4,M,,*68
$GPGGA,230646.200,3852.1812,N,07716.5299,W,1,5,2.91,122.1,M,-33.4,M,,*69
$GPGGA,230646.200,3852.1812,N,07716.5299,W,1,5,2.91,122.1,M,-33.4,M,,*69
$GPGGA,230646.400,3852.1812,N,07716.5299,W,1,5,2.91,122.1,M,-33.4,M,,*6F
$GPGGA,230646.400,3852.1812,N,07716.5299,W,1,5,2.91,122.1,M,-33.4,M,,*6F
$GPGGA,230646.600,3852.1812,N,07716.5299,W,1,5,2.91,122.1,M,-33.4,M,,*6D
$GPGGA,230646.600,3852.1812,N,07716.5299,W,1,5,2.91,122.1,M,-33.4,M,,*6D
$GPGGA,230646.800,3852.1812,N,07716.5299,W,1,5,2.91,122.1,M,-33.4,M,,*63
$GPGGA,230646.800,3852.1812,N,07716.5299,W,1,5,2.91,122.1,M,-33.4,M,,*63
$GPGGA,230647.000,3852.1812,N,07716.5299,W,1,5,2.91,122.1,M,-33.4,M,,*6A
$GPGGA,230647.000,3852.1812,N,07716.5299,W,1,5,2.91,122.1,M,-33.4,M,,*6A
$GPGGA,230647.200,3852.1811,N,07716.5299,W,1,5,2.91,122.1,M,-33.4,M,,*6B
$GPGGA,230647.200,3852.1811,N,07716.5299,W,1,5,2.91,122.1,M,-33.4,M,,*6B
$GPGGA,230647.400,3852.1811,N,07716.5299,W,1,5,2.91,122.1,M,-33.4,M,,*6D
$GPGGA,230647.400,3852.1811,N,07716.5299,W,1,5,2.91,122.1,M,-33.4,M,,*6D
$GPGGA,230647.600,3852.1811,N,07716.5299,W,1,5,3.20,122.1,M,-33.4,M,,*64
$GPGGA,230647.600,3852.1811,N,07716.5299,W,1,5,3.20,122.1,M,-33.4,M,,*64
$GPGGA,230647.800,3852.1811,N,07716.5299,W,1,5,2.91,122.1,M,-33.4,M,,*61
$GPGGA,230647.800,3852.1811,N,07716.5299,W,1,5,2.91,122.1,M,-33.4,M,,*61
$GPGGA,230648.000,3852.1811,N,07716.5299,W,1,5,2.91,122.1,M,-33.4,M,,*66
$GPGGA,230648.000,3852.1811,N,07716.5299,W,1,5,2.91,122.1,M,-33.4,M,,*66
$GPGGA,230648.200,3852.1811,N,07716.5299,W,1,5,2.91,122.1,M,-33.4,M,,*64
$GPGGA,230648.200,3852.1811,N,07716.5299,W,1,5,2.91,122.1,M,-33.4,M,,*64
$GPGGA,230648.400,3852.1811,N,07716.5299,W,1,5,2.91,122.1,M,-33.4,M,,*62
$GPGGA,230648.400,3852.1811,N,07716.5299,W,1,5,2.91,122.1,M,-33.4,M,,*62
$GPGGA,230648.600,3852.1811,N,07716.5299,W,1,5,2.91,122.1,M,-33.4,M,,*60
$GPGGA,230648.600,3852.1811,N,07716.5299,W,1,5,2.91,122.1,M,-33.4,M,,*60
$GPGGA,230648.800,3852.1811,N,07716.5299,W,1,5,2.91,122.1,M,-33.4,M,,*6E
$GPGGA,230648.800,3852.1811,N,07716.5299,W,1,5,2.91,122.1,M,-33.4,M,,*6E
$GPGGA,230649.000,3852.1811,N,07716.5300,W,1,5,2.91,122.1,M,-33.4,M,,*66
$GPGGA,230649.000,3852.1811,N,07716.5300,W,1,5,2.91,122.1,M,-33.4,M,,*66
$GPGGA,230649.200,3852.1811,N,07716.5300,W,1,5,2.91,122.1,M,-33.4,M,,*64
$GPGGA,230649.200,3852.1811,N,07716.5300,W,1,5,2.91,122.1,M,-33.4,M,,*64
$GPGGA,230649.400,3852.1811,N,07716.5300,W,1,5,2.91,122.1,M,-33.4,M,,*62
$GPGGA,230649.400,3852.1811,N,07716.5300,W,1,5,2.91,122.1,M,-33.4,M,,*62
$GPGGA,230649.600,3852.1811,N,07716.5300,W,1,5,2.90,122.1,M,-33.4,M,,*61
$GPGGA,230649.600,3852.1811,N,07716.5300,W,1,5,2.90,122.1,M,-33.4,M,,*61
$GPGGA,230649.800,3852.1811,N,07716.5300,W,1,5,2.91,122.1,M,-33.4,M,,*6E
$GPGGA,230649.800,3852.1811,N,07716.5300,W,1,5,2.91,122.1,M,-33.4,M,,*6E
$GPGGA,230650.000,3852.1811,N,07716.5300,W,1,5,2.91,122.1,M,-33.4,M,,*6E
$GPGGA,230650.000,3852.1811,N,07716.5300,W,1,5,2.91,122.1,M,-33.4,M,,*6E
$GPGGA,230650.200,3852.1811,N,07716.5300,W,1,6,1.89,122.1,M,-33.4,M,,*65
$GPGGA,230650.200,3852.1811,N,07716.5300,W,1,6,1.89,122.1,M,-33.4,M,,*65
$GPGGA,230650.400,3852.1811,N,07716.5300,W,1,6,1.89,122.0,M,-33.4,M,,*62
$GPGGA,230650.400,3852.1811,N,07716.5300,W,1,6,1.89,122.0,M,-33.4,M,,*62
$GPGGA,230650.600,3852.1810,N,07716.5300,W,1,6,1.89,121.9,M,-33.4,M,,*6B
$GPGGA,230650.600,3852.1810,N,07716.5300,W,1,6,1.89,121.9,M,-33.4,M,,*6B
$GPGGA,230650.800,3852.1810,N,07716.5300,W,1,6,1.89,121.8,M,-33.4,M,,*64
$GPGGA,230650.800,3852.1810,N,07716.5300,W,1,6,1.89,121.8,M,-33.4,M,,*64
$GPGGA,230651.000,3852.1809,N,07716.5300,W,1,6,1.89,121.8,M,-33.4,M,,*65
$GPGGA,230651.000,3852.1809,N,07716.5300,W,1,6,1.89,121.8,M,-33.4,M,,*65
$GPGGA,230651.200,3852.1808,N,07716.5300,W,1,6,1.89,121.7,M,-33.4,M,,*69
$GPGGA,230651.200,3852.1808,N,07716.5300,W,1,6,1.89,121.7,M,-33.4,M,,*69
$GPGGA,230651.400,3852.1808,N,07716.5300,W,1,6,1.99,121.7,M,-33.4,M,,*6E
$GPGGA,230651.400,3852.1808,N,07716.5300,W,1,6,1.99,121.7,M,-33.4,M,,*6E
$GPGGA,230651.600,3852.1808,N,07716.5300,W,1,6,1.89,121.7,M,-33.4,M,,*6D
$GPGGA,230651.600,3852.1808,N,07716.5300,W,1,6,1.89,121.7,M,-33.4,M,,*6D
$GPGGA,230651.800,3852.1808,N,07716.5300,W,1,6,1.89,121.7,M,-33.4,M,,*63
$GPGGA,230651.800,3852.1808,N,07716.5300,W,1,6,1.89,121.7,M,-33.4,M,,*63
$GPGGA,230652.000,3852.1808,N,07716.5300,W,1,6,1.89,121.7,M,-33.4,M,,*68
$GPGGA,230652.000,3852.1808,N,07716.5300,W,1,6,1.89,121.7,M,-33.4,M,,*68
$GPGGA,230652.200,3852.1808,N,07716.5300,W,1,6,1.89,121.7,M,-33.4,M,,*6A
$GPGGA,230652.200,3852.1808,N,07716.5300,W,1,6,1.89,121.7,M,-33.4,M,,*6A
$GPGGA,230652.400,3852.1808,N,07716.5300,W,1,6,1.89,121.7,M,-33.4,M,,*6C
$GPGGA,230652.400,3852.1808,N,07716.5300,W,1,6,1.89,121.7,M,-33.4,M,,*6C
$GPGGA,230652.600,3852.1808,N,07716.5300,W,1,6,1.89,121.7,M,-33.4,M,,*6E
$GPGGA,230652.600,3852.1808,N,07716.5300,W,1,6,1.89,121.7,M,-33.4,M,,*6E
$GPGGA,230652.800,3852.1808,N,07716.5300,W,1,6,1.99,121.7,M,-33.4,M,,*61
$GPGGA,230652.800,3852.1808,N,07716.5300,W,1,6,1.99,121.7,M,-33.4,M,,*61
$GPGGA,230653.000,3852.1808,N,07716.5300,W,1,6,1.89,121.7,M,-33.4,M,,*69
$GPGGA,230653.000,3852.1808,N,07716.5300,W,1,6,1.89,121.7,M,-33.4,M,,*69
$GPGGA,230653.200,3852.1808,N,07716.5300,W,1,6,1.89,121.7,M,-33.4,M,,*6B
$GPGGA,230653.200,3852.1808,N,07716.5300,W,1,6,1.89,121.7,M,-33.4,M,,*6B
$GPGGA,230653.400,3852.1808,N,07716.5300,W,1,6,1.89,121.7,M,-33.4,M,,*6D
$GPGGA,230653.400,3852.1808,N,07716.5300,W,1,6,1.89,121.7,M,-33.4,M,,*6D
$GPGGA,230653.600,3852.1808,N,07716.5300,W,1,6,1.89,121.6,M,-33.4,M,,*6E
$GPGGA,230653.600,3852.1808,N,07716.5300,W,1,6,1.89,121.6,M,-33.4,M,,*6E
$GPGGA,230653.800,3852.1808,N,07716.5300,W,1,6,1.89,121.6,M,-33.4,M,,*60
$GPGGA,230653.800,3852.1808,N,07716.5300,W,1,6,1.89,121.6,M,-33.4,M,,*60
$GPGGA,230654.000,3852.1808,N,07716.5300,W,1,6,1.99,121.6,M,-33.4,M,,*6E
$GPGGA,230654.000,3852.1808,N,07716.5300,W,1,6,1.99,121.6,M,-33.4,M,,*6E
$GPGGA,230654.200,3852.1808,N,07716.5300,W,1,6,1.89,121.6,M,-33.4,M,,*6D
$GPGGA,230654.200,3852.1808,N,07716.5300,W,1,6,1.89,121.6,M,-33.4,M,,*6D
$GPGGA,230654.400,3852.1808,N,07716.5300,W,1,6,1.89,121.6,M,-33.4,M,,*6B
$GPGGA,230654.400,3852.1808,N,07716.5300,W,1,6,1.89,121.6,M,-33.4,M,,*6B
$GPGGA,230654.600,3852.1808,N,07716.5300,W,1,6,1.89,121.6,M,-33.4,M,,*69
$GPGGA,230654.600,3852.1808,N,07716.5300,W,1,6,1.89,121.6,M,-33.4,M,,*69
$GPGGA,230654.800,3852.1808,N,07716.5300,W,1,6,1.89,121.6,M,-33.4,M,,*67
$GPGGA,230654.800,3852.1808,N,07716.5300,W,1,6,1.89,121.6,M,-33.4,M,,*67
$GPGGA,230655.000,3852.1808,N,07716.5300,W,1,6,1.89,121.6,M,-33.4,M,,*6E
$GPGGA,230655.000,3852.1808,N,07716.5300,W,1,6,1.89,121.6,M,-33.4,M,,*6E
$GPGGA,230655.200,3852.1808,N,07716.5300,W,1,6,1.89,121.6,M,-33.4,M,,*6C
$GPGGA,230655.200,3852.1808,N,07716.5300,W,1,6,1.89,121.6,M,-33.4,M,,*6C
$GPGGA,230655.400,3852.1808,N,07716.5300,W,1,6,1.89,121.6,M,-33.4,M,,*6A
$GPGGA,230655.400,3852.1808,N,07716.5300,W,1,6,1.89,121.6,M,-33.4,M,,*6A
$GPGGA,230655.600,3852.1808,N,07716.5300,W,1,6,1.89,121.6,M,-33.4,M,,*68
$GPGGA,230655.600,3852.1808,N,07716.5300,W,1,6,1.89,121.6,M,-33.4,M,,*68
$GPGGA,230655.800,3852.1808,N,07716.5300,W,1,6,1.89,121.6,M,-33.4,M,,*66
$GPGGA,230655.800,3852.1808,N,07716.5300,W,1,6,1.89,121.6,M,-33.4,M,,*66
$GPGGA,230656.000,3852.1808,N,07716.5300,W,1,6,1.89,121.6,M,-33.4,M,,*6D
$GPGGA,230656.000,3852.1808,N,07716.5300,W,1,6,1.89,121.6,M,-33.4,M,,*6D
$GPGGA,230656.200,3852.1808,N,07716.5300,W,1,6,1.89,121.6,M,-33.4,M,,*6F
$GPGGA,230656.200,3852.1808,N,07716.5300,W,1,6,1.89,121.6,M,-33.4,M,,*6F
$GPGGA,230656.400,3852.1808,N,07716.5300,W,1,6,1.89,121.6,M,-33.4,M,,*69
$GPGGA,230656.400,3852.1808,N,07716.5300,W,1,6,1.89,121.6,M,-33.4,M,,*69
$GPGGA,230656.600,3852.1808,N,07716.5300,W,1,6,1.89,121.6,M,-33.4,M,,*6B
$GPGGA,230656.600,3852.1808,N,07716.5300,W,1,6,1.89,121.6,M,-33.4,M,,*6B
$GPGGA,230656.800,3852.1808,N,07716.5300,W,1,6,1.89,121.6,M,-33.4,M,,*65
$GPGGA,230656.800,3852.1808,N,07716.5300,W,1,6,1.89,121.6,M,-33.4,M,,*65
$GPGGA,230657.000,3852.1808,N,07716.5300,W,1,6,1.99,121.6,M,-33.4,M,,*6D
$GPGGA,230657.000,3852.1808,N,07716.5300,W,1,6,1.99,121.6,M,-33.4,M,,*6D
$GPGGA,230657.200,3852.1808,N,07716.5300,W,1,6,1.89,121.6,M,-33.4,M,,*6E
$GPGGA,230657.200,3852.1808,N,07716.5300,W,1,6,1.89,121.6,M,-33.4,M,,*6E
$GPGGA,230657.400,3852.1808,N,07716.5300,W,1,6,1.89,121.6,M,-33.4,M,,*68
$GPGGA,230657.400,3852.1808,N,07716.5300,W,1,6,1.89,121.6,M,-33.4,M,,*68
$GPGGA,230657.600,3852.1808,N,07716.5300,W,1,6,1.89,121.6,M,-33.4,M,,*6A
$GPGGA,230657.600,3852.1808,N,07716.5300,W,1,6,1.89,121.6,M,-33.4,M,,*6A
$GPGGA,230657.800,3852.1808,N,07716.5300,W,1,6,1.89,121.6,M,-33.4,M,,*64
$GPGGA,230657.800,3852.1808,N,07716.5300,W,1,6,1.89,121.6,M,-33.4,M,,*64
$GPGGA,230658.000,3852.1808,N,07716.5300,W,1,6,1.89,121.6,M,-33.4,M,,*63
$GPGGA,230658.000,3852.1808,N,07716.5300,W,1,6,1.89,121.6,M,-33.4,M,,*63
$GPGGA,230658.200,3852.1808,N,07716.5300,W,1,6,1.89,121.6,M,-33.4,M,,*61
$GPGGA,230658.200,3852.1808,N,07716.5300,W,1,6,1.89,121.6,M,-33.4,M,,*61
$GPGGA,230658.400,3852.1808,N,07716.5300,W,1,6,1.89,121.6,M,-33.4,M,,*67
$GPGGA,230658.400,3852.1808,N,07716.5300,W,1,6,1.89,121.6,M,-33.4,M,,*67
$GPGGA,230658.600,3852.1808,N,07716.5300,W,1,6,1.89,121.6,M,-33.4,M,,*65
$GPGGA,230658.600,3852.1808,N,07716.5300,W,1,6,1.89,121.6,M,-33.4,M,,*65
$GPGGA,230658.800,3852.1808,N,07716.5300,W,1,6,1.89,121.6,M,-33.4,M,,*6B
$GPGGA,230658.800,3852.1808,N,07716.5300,W,1,6,1.89,121.6,M,-33.4,M,,*6B
$GPGGA,230659.000,3852.1808,N,07716.5300,W,1,6,1.89,121.6,M,-33.4,M,,*62
$GPGGA,230659.000,3852.1808,N,07716.5300,W,1,6,1.89,121.6,M,-33.4,M,,*62
$GPGGA,230659.200,3852.1808,N,07716.5300,W,1,6,1.99,121.6,M,-33.4,M,,*61
$GPGGA,230659.200,3852.1808,N,07716.5300,W,1,6,1.99,121.6,M,-33.4,M,,*61
$GPGGA,230659.400,3852.1808,N,07716.5300,W,1,6,1.89,121.6,M,-33.4,M,,*66
$GPGGA,230659.400,3852.1808,N,07716.5300,W,1,6,1.89,121.6,M,-33.4,M,,*66
$GPGGA,230659.600,3852.1808,N,07716.5300,W,1,6,1.89,121.6,M,-33.4,M,,*64
$GPGGA,230659.600,3852.1808,N,07716.5300,W,1,6,1.89,121.6,M,-33.4,M,,*64
$GPGGA,230659.800,3852.1808,N,07716.5300,W,1,6,1.89,121.6,M,-33.4,M,,*6A
$GPGGA,230659.800,3852.1808,N,07716.5300,W,1,6,1.89,121.6,M,-33.4,M,,*6A
$GPGGA,230700.000,3852.1808,N,07716.5300,W,1,6,1.89,121.6,M,-33.4,M,,*6F
$GPGGA,230700.000,3852.1808,N,07716.5300,W,1,6,1.89,121.6,M,-33.4,M,,*6F
$GPGGA,230700.200,3852.1808,N,07716.5300,W,1,6,1.89,121.6,M,-33.4,M,,*6D
$GPGGA,230700.200,3852.1808,N,07716.5300,W,1,6,1.89,121.6,M,-33.4,M,,*6D
$GPGGA,230700.400,3852.1808,N,07716.5300,W,1,6,1.89,121.6,M,-33.4,M,,*6B
$GPGGA,230700.400,3852.1808,N,07716.5300,W,1,6,1.89,121.6,M,-33.4,M,,*6B
$GPGGA,230700.600,3852.1808,N,07716.5300,W,1,6,1.89,121.6,M,-33.4,M,,*69
$GPGGA,230700.600,3852.1808,N,07716.5300,W,1,6,1.89,121.6,M,-33.4,M,,*69
$GPGGA,230700.800,3852.1808,N,07716.5300,W,1,6,1.89,121.6,M,-33.4,M,,*67
$GPGGA,230700.800,3852.1808,N,07716.5300,W,1,6,1.89,121.6,M,-33.4,M,,*67
$GPGGA,230701.000,3852.1808,N,07716.5300,W,1,6,1.89,121.6,M,-33.4,M,,*6E
$GPGGA,230701.000,3852.1808,N,07716.5300,W,1,6,1.89,121.6,M,-33.4,M,,*6E
$GPGGA,230701.200,3852.1808,N,07716.5300,W,1,6,1.89,121.6,M,-33.4,M,,*6C
$GPGGA,230701.200,3852.1808,N,07716.5300,W,1,6,1.89,121.6,M,-33.4,M,,*6C
$GPGGA,230701.400,3852.1808,N,07716.5300,W,1,6,1.89,121.6,M,-33.4,M,,*6A
$GPGGA,230701.400,3852.1808,N,07716.5300,W,1,6,1.89,121.6,M,-33.4,M,,*6A
$GPGGA,230701.600,3852.1808,N,07716.5300,W,1,6,1.99,121.6,M,-33.4,M,,*69
$GPGGA,230701.600,3852.1808,N,07716.5300,W,1,6,1.99,121.6,M,-33.4,M,,*69
$GPGGA,230701.800,3852.1808,N,07716.5300,W,1,6,1.89,121.6,M,-33.4,M,,*66
$GPGGA,230701.800,3852.1808,N,07716.5300,W,1,6,1.89,121.6,M,-33.4,M,,*66
$GPGGA,230702.000,3852.1808,N,07716.5300,W,1,6,1.89,121.6,M,-33.4,M,,*6D
$GPGGA,230702.000,3852.1808,N,07716.5300,W,1,6,1.89,121.6,M,-33.4,M,,*6D
$GPGGA,230702.200,3852.1808,N,07716.5300,W,1,8,1.28,121.6,M,-33.4,M,,*6A
$GPGGA,230702.200,3852.1808,N,07716.5300,W,1,8,1.28,121.6,M,-33.4,M,,*6A
$GPGGA,230702.400,3852.1808,N,07716.5300,W,1,7,1.66,121.6,M,-33.4,M,,*69
$GPGGA,230702.400,3852.1808,N,07716.5300,W,1,7,1.66,121.6,M,-33.4,M,,*69
$GPGGA,230702.600,3852.1808,N,07716.5300,W,1,7,1.66,121.6,M,-33.4,M,,*6B
$GPGGA,230702.600,3852.1808,N,07716.5300,W,1,7,1.66,121.6,M,-33.4,M,,*6B
$GPGGA,230702.800,3852.1808,N,07716.5300,W,1,7,1.66,121.6,M,-33.4,M,,*65
$GPGGA,230702.800,3852.1808,N,07716.5300,W,1,7,1.66,121.6,M,-33.4,M,,*65
$GPGGA,230703.000,3852.1808,N,07716.5300,W,1,7,1.66,121.6,M,-33.4,M,,*6C
$GPGGA,230703.000,3852.1808,N,07716.5300,W,1,7,1.66,121.6,M,-33.4,M,,*6C
$GPGGA,230703.200,3852.1808,N,07716.5300,W,1,7,1.66,121.6,M,-33.4,M,,*6E
$GPGGA,230703.200,3852.1808,N,07716.5300,W,1,7,1.66,121.6,M,-33.4,M,,*6E
$GPGGA,230703.400,3852.1808,N,07716.5300,W,1,7,1.66,121.6,M,-33.4,M,,*68
$GPGGA,230703.400,3852.1808,N,07716.5300,W,1,7,1.66,121.6,M,-33.4,M,,*68
$GPGGA,230703.600,3852.1808,N,07716.5300,W,1,7,1.66,121.6,M,-33.4,M,,*6A
$GPGGA,230703.600,3852.1808,N,07716.5300,W,1,7,1.66,121.6,M,-33.4,M,,*6A
$GPGGA,230703.800,3852.1808,N,07716.5300,W,1,7,1.66,121.6,M,-33.4,M,,*64
$GPGGA,230703.800,3852.1808,N,07716.5300,W,1,7,1.66,121.6,M,-33.4,M,,*64
$GPGGA,230704.000,3852.1808,N,07716.5300,W,1,7,1.66,121.6,M,-33.4,M,,*6B
$GPGGA,230704.000,3852.1808,N,07716.5300,W,1,7,1.66,121.6,M,-33.4,M,,*6B
$GPGGA,230704.200,3852.1808,N,07716.5300,W,1,7,1.66,121.6,M,-33.4,M,,*69
$GPGGA,230704.200,3852.1808,N,07716.5300,W,1,7,1.66,121.6,M,-33.4,M,,*69
$GPGGA,230704.400,3852.1808,N,07716.5300,W,1,7,1.66,121.6,M,-33.4,M,,*6F
$GPGGA,230704.400,3852.1808,N,07716.5300,W,1,7,1.66,121.6,M,-33.4,M,,*6F
$GPGGA,230704.600,3852.1808,N,07716.5300,W,1,7,1.66,121.6,M,-33.4,M,,*6D
$GPGGA,230704.600,3852.1808,N,07716.5300,W,1,7,1.66,121.6,M,-33.4,M,,*6D
$GPGGA,230704.800,3852.1808,N,07716.5300,W,1,7,1.66,121.5,M,-33.4,M,,*60
$GPGGA,230704.800,3852.1808,N,07716.5300,W,1,7,1.66,121.5,M,-33.4,M,,*60
$GPGGA,230705.000,3852.1808,N,07716.5300,W,1,7,1.66,121.5,M,-33.4,M,,*69
$GPGGA,230705.000,3852.1808,N,07716.5300,W,1,7,1.66,121.5,M,-33.4,M,,*69
$GPGGA,230705.200,3852.1807,N,07716.5300,W,1,7,1.66,121.5,M,-33.4,M,,*64
$GPGGA,230705.200,3852.1807,N,07716.5300,W,1,7,1.66,121.5,M,-33.4,M,,*64
$GPGGA,230705.400,3852.1807,N,07716.5300,W,1,7,1.66,121.5,M,-33.4,M,,*62
$GPGGA,230705.400,3852.1807,N,07716.5300,W,1,7,1.66,121.5,M,-33.4,M,,*62
$GPGGA,230705.600,3852.1807,N,07716.5300,W,1,7,1.66,121.5,M,-33.4,M,,*60
$GPGGA,230705.600,3852.1807,N,07716.5300,W,1,7,1.66,121.5,M,-33.4,M,,*60
$GPGGA,230705.800,3852.1807,N,07716.5300,W,1,7,1.66,121.5,M,-33.4,M,,*6E
$GPGGA,230705.800,3852.1807,N,07716.5300,W,1,7,1.66,121.5,M,-33.4,M,,*6E
$GPGGA,230706.000,3852.1807,N,07716.5300,W,1,7,1.66,121.5,M,-33.4,M,,*65
$GPGGA,230706.000,3852.1807,N,07716.5300,W,1,7,1.66,121.5,M,-33.4,M,,*65
$GPGGA,230706.200,3852.1807,N,07716.5300,W,1,7,1.66,121.5,M,-33.4,M,,*67
$GPGGA,230706.200,3852.1807,N,07716.5300,W,1,7,1.66,121.5,M,-33.4,M,,*67
$GPGGA,230706.400,3852.1807,N,07716.5300,W,1,7,1.66,121.5,M,-33.4,M,,*61
$GPGGA,230706.400,3852.1807,N,07716.5300,W,1,7,1.66,121.5,M,-33.4,M,,*61
$GPGGA,230706.600,3852.1807,N,07716.5300,W,1,7,1.66,121.5,M,-33.4,M,,*63
$GPGGA,230706.600,3852.1807,N,07716.5300,W,1,7,1.66,121.5,M,-33.4,M,,*63
$GPGGA,230706.800,3852.1807,N,07716.5300,W,1,7,1.66,121.5,M,-33.4,M,,*6D
$GPGGA,230706.800,3852.1807,N,07716.5300,W,1,7,1.66,121.5,M,-33.4,M,,*6D
$GPGGA,230707.000,3852.1807,N,07716.5300,W,1,7,1.66,121.5,M,-33.4,M,,*64
$GPGGA,230707.000,3852.1807,N,07716.5300,W,1,7,1.66,121.5,M,-33.4,M,,*64
$GPGGA,230707.200,3852.1807,N,07716.5300,W,1,7,1.66,121.5,M,-33.4,M,,*66
$GPGGA,230707.200,3852.1807,N,07716.5300,W,1,7,1.66,121.5,M,-33.4,M,,*66
$GPGGA,230707.400,3852.1807,N,07716.5300,W,1,7,1.66,121.5,M,-33.4,M,,*60
$GPGGA,230707.400,3852.1807,N,07716.5300,W,1,7,1.66,121.5,M,-33.4,M,,*60
$GPGGA,230707.600,3852.1807,N,07716.5300,W,1,7,1.66,121.5,M,-33.4,M,,*62
$GPGGA,230707.600,3852.1807,N,07716.5300,W,1,7,1.66,121.5,M,-33.4,M,,*62
$GPGGA,230707.800,3852.1807,N,07716.5300,W,1,7,1.66,121.5,M,-33.4,M,,*6C
$GPGGA,230707.800,3852.1807,N,07716.5300,W,1,7,1.66,121.5,M,-33.4,M,,*6C
$GPGGA,230708.000,3852.1807,N,07716.5300,W,1,7,1.66,121.5,M,-33.4,M,,*6B
$GPGGA,230708.000,3852.1807,N,07716.5300,W,1,7,1.66,121.5,M,-33.4,M,,*6B
$GPGGA,230708.200,3852.1807,N,07716.5300,W,1,7,1.66,121.5,M,-33.4,M,,*69
$GPGGA,230708.200,3852.1807,N,07716.5300,W,1,7,1.66,121.5,M,-33.4,M,,*69
$GPGGA,230708.400,3852.1807,N,07716.5300,W,1,7,1.66,121.5,M,-33.4,M,,*6F
$GPGGA,230708.400,3852.1807,N,07716.5300,W,1,7,1.66,121.5,M,-33.4,M,,*6F
$GPGGA,230708.600,3852.1807,N,07716.5300,W,1,7,1.66,121.5,M,-33.4,M,,*6D
$GPGGA,230708.600,3852.1807,N,07716.5300,W,1,7,1.66,121.5,M,-33.4,M,,*6D
$GPGGA,230708.800,3852.1807,N,07716.5300,W,1,7,1.66,121.5,M,-33.4,M,,*63
$GPGGA,230708.800,3852.1807,N,07716.5300,W,1,7,1.66,121.5,M,-33.4,M,,*63
$GPGGA,230709.000,3852.1807,N,07716.5300,W,1,7,1.66,121.5,M,-33.4,M,,*6A
$GPGGA,230709.000,3852.1807,N,07716.5300,W,1,7,1.66,121.5,M,-33.4,M,,*6A
$GPGGA,230709.200,3852.1807,N,07716.5300,W,1,7,1.66,121.5,M,-33.4,M,,*68
$GPGGA,230709.200,3852.1807,N,07716.5300,W,1,7,1.66,121.5,M,-33.4,M,,*68
$GPGGA,230709.400,3852.1807,N,07716.5300,W,1,7,1.66,121.5,M,-33.4,M,,*6E
$GPGGA,230709.400,3852.1807,N,07716.5300,W,1,7,1.66,121.5,M,-33.4,M,,*6E
$GPGGA,230709.600,3852.1807,N,07716.5300,W,1,7,1.66,121.5,M,-33.4,M,,*6C
$GPGGA,230709.600,3852.1807,N,07716.5300,W,1,7,1.66,121.5,M,-33.4,M,,*6C
$GPGGA,230709.800,3852.1807,N,07716.5300,W,1,7,1.66,121.5,M,-33.4,M,,*62
$GPGGA,230709.800,3852.1807,N,07716.5300,W,1,7,1.66,121.5,M,-33.4,M,,*62
$GPGGA,230710.000,3852.1807,N,07716.5300,W,1,7,1.66,121.5,M,-33.4,M,,*62
$GPGGA,230710.000,3852.1807,N,07716.5300,W,1,7,1.66,121.5,M,-33.4,M,,*62
$GPGGA,230710.200,3852.1807,N,07716.5300,W,1,7,1.66,121.5,M,-33.4,M,,*60
$GPGGA,230710.200,3852.1807,N,07716.5300,W,1,7,1.66,121.5,M,-33.4,M,,*60
$GPGGA,230710.400,3852.1807,N,07716.5300,W,1,7,1.66,121.5,M,-33.4,M,,*66
$GPGGA,230710.400,3852.1807,N,07716.5300,W,1,7,1.66,121.5,M,-33.4,M,,*66
$GPGGA,230710.600,3852.1807,N,07716.5300,W,1,7,1.66,121.5,M,-33.4,M,,*64
$GPGGA,230710.600,3852.1807,N,07716.5300,W,1,7,1.66,121.5,M,-33.4,M,,*64
$GPGGA,230710.800,3852.1807,N,07716.5300,W,1,7,1.66,121.5,M,-33.4,M,,*6A
$GPGGA,230710.800,3852.1807,N,07716.5300,W,1,7,1.66,121.5,M,-33.4,M,,*6A
$GPGGA,230711.000,3852.1807,N,07716.5300,W,1,7,1.66,121.5,M,-33.4,M,,*63
$GPGGA,230711.000,3852.1807,N,07716.5300,W,1,7,1.66,121.5,M,-33.4,M,,*63
$GPGGA,230711.200,3852.1807,N,07716.5300,W,1,7,1.66,121.5,M,-33.4,M,,*61
$GPGGA,230711.200,3852.1807,N,07716.5300,W,1,7,1.66,121.5,M,-33.4,M,,*61
$GPGGA,230711.400,3852.1807,N,07716.5300,W,1,7,1.66,121.5,M,-33.4,M,,*67
$GPGGA,230711.400,3852.1807,N,07716.5300,W,1,7,1.66,121.5,M,-33.4,M,,*67
$GPGGA,230711.600,3852.1807,N,07716.5300,W,1,7,1.66,121.5,M,-33.4,M,,*65
$GPGGA,230711.600,3852.1807,N,07716.5300,W,1,7,1.66,121.5,M,-33.4,M,,*65
$GPGGA,230711.800,3852.1807,N,07716.5300,W,1,7,1.66,121.5,M,-33.4,M,,*6B
$GPGGA,230711.800,3852.1807,N,07716.5300,W,1,7,1.66,121.5,M,-33.4,M,,*6B
$GPGGA,230712.000,3852.1807,N,07716.5300,W,1,7,1.66,121.5,M,-33.4,M,,*60
$GPGGA,230712.000,3852.1807,N,07716.5300,W,1,7,1.66,121.5,M,-33.4,M,,*60
$GPGGA,230712.200,3852.1807,N,07716.5300,W,1,7,1.66,121.5,M,-33.4,M,,*62
$GPGGA,230712.200,3852.1807,N,07716.5300,W,1,7,1.66,121.5,M,-33.4,M,,*62
$GPGGA,230712.400,3852.1807,N,07716.5300,W,1,7,1.66,121.5,M,-33.4,M,,*64
$GPGGA,230712.400,3852.1807,N,07716.5300,W,1,7,1.66,121.5,M,-33.4,M,,*64
$GPGGA,230712.600,3852.1807,N,07716.5300,W,1,7,1.66,121.5,M,-33.4,M,,*66
$GPGGA,230712.600,3852.1807,N,07716.5300,W,1,7,1.66,121.5,M,-33.4,M,,*66
$GPGGA,230712.800,3852.1807,N,07716.5300,W,1,7,1.66,121.5,M,-33.4,M,,*68
$GPGGA,230712.800,3852.1807,N,07716.5300,W,1,7,1.66,121.5,M,-33.4,M,,*68
$GPGGA,230713.000,3852.1807,N,07716.5300,W,1,7,1.66,121.5,M,-33.4,M,,*61
$GPGGA,230713.000,3852.1807,N,07716.5300,W,1,7,1.66,121.5,M,-33.4,M,,*61
$GPGGA,230713.200,3852.1807,N,07716.5300,W,1,7,1.66,121.5,M,-33.4,M,,*63
$GPGGA,230713.200,3852.1807,N,07716.5300,W,1,7,1.66,121.5,M,-33.4,M,,*63
$GPGGA,230713.400,3852.1807,N,07716.5300,W,1,7,1.66,121.5,M,-33.4,M,,*65
$GPGGA,230713.400,3852.1807,N,07716.5300,W,1,7,1.66,121.5,M,-33.4,M,,*65
$GPGGA,230713.600,3852.1807,N,07716.5300,W,1,7,1.66,121.5,M,-33.4,M,,*67
$GPGGA,230713.600,3852.1807,N,07716.5300,W,1,7,1.66,121.5,M,-33.4,M,,*67
$GPGGA,230713.800,3852.1807,N,07716.5300,W,1,7,1.66,121.5,M,-33.4,M,,*69
$GPGGA,230713.800,3852.1807,N,07716.5300,W,1,7,1.66,121.5,M,-33.4,M,,*69
$GPGGA,230714.000,3852.1807,N,07716.5300,W,1,7,1.66,121.5,M,-33.4,M,,*66
$GPGGA,230714.000,3852.1807,N,07716.5300,W,1,7,1.66,121.5,M,-33.4,M,,*66
$GPGGA,230714.200,3852.1807,N,07716.5300,W,1,7,1.66,121.5,M,-33.4,M,,*64
$GPGGA,230714.200,3852.1807,N,07716.5300,W,1,7,1.66,121.5,M,-33.4,M,,*64
$GPGGA,230714.400,3852.1807,N,07716.5300,W,1,7,1.66,121.5,M,-33.4,M,,*62
$GPGGA,230714.400,3852.1807,N,07716.5300,W,1,7,1.66,121.5,M,-33.4,M,,*62
$GPGGA,230714.600,3852.1807,N,07716.5300,W,1,7,1.66,121.5,M,-33.4,M,,*60
$GPGGA,230714.600,3852.1807,N,07716.5300,W,1,7,1.66,121.5,M,-33.4,M,,*60
$GPGGA,230714.800,3852.1807,N,07716.5300,W,1,7,1.66,121.5,M,-33.4,M,,*6E
$GPGGA,230714.800,3852.1807,N,07716.5300,W,1,7,1.66,121.5,M,-33.4,M,,*6E
$GPGGA,230715.000,3852.1807,N,07716.5300,W,1,7,1.66,121.5,M,-33.4,M,,*67
$GPGGA,230715.000,3852.1807,N,07716.5300,W,1,7,1.66,121.5,M,-33.4,M,,*67
$GPGGA,230715.200,3852.1807,N,07716.5300,W,1,7,1.66,121.5,M,-33.4,M,,*65
$GPGGA,230715.200,3852.1807,N,07716.5300,W,1,7,1.66,121.5,M,-33.4,M,,*65
$GPGGA,230715.400,3852.1807,N,07716.5300,W,1,7,1.66,121.5,M,-33.4,M,,*63
$GPGGA,230715.400,3852.1807,N,07716.5300,W,1,7,1.66,121.5,M,-33.4,M,,*63
$GPGGA,230715.600,3852.1807,N,07716.5300,W,1,7,1.66,121.5,M,-33.4,M,,*61
$GPGGA,230715.600,3852.1807,N,07716.5300,W,1,7,1.66,121.5,M,-33.4,M,,*61
$GPGGA,230715.800,3852.1807,N,07716.5300,W,1,7,1.66,121.5,M,-33.4,M,,*6F
$GPGGA,230715.800,3852.1807,N,07716.5300,W,1,7,1.66,121.5,M,-33.4,M,,*6F
$GPGGA,230716.000,3852.1807,N,07716.5300,W,1,7,1.66,121.5,M,-33.4,M,,*64
$GPGGA,230716.000,3852.1807,N,07716.5300,W,1,7,1.66,121.5,M,-33.4,M,,*64
$GPGGA,230716.200,3852.1807,N,07716.5300,W,1,7,1.66,121.5,M,-33.4,M,,*66
$GPGGA,230716.200,3852.1807,N,07716.5300,W,1,7,1.66,121.5,M,-33.4,M,,*66
$GPGGA,230716.400,3852.1807,N,07716.5300,W,1,7,1.66,121.5,M,-33.4,M,,*60
$GPGGA,230716.400,3852.1807,N,07716.5300,W,1,7,1.66,121.5,M,-33.4,M,,*60
$GPGGA,230716.600,3852.1807,N,07716.5300,W,1,7,1.66,121.5,M,-33.4,M,,*62
$GPGGA,230716.600,3852.1807,N,07716.5300,W,1,7,1.66,121.5,M,-33.4,M,,*62
$GPGGA,230716.800,3852.1807,N,07716.5300,W,1,7,1.66,121.5,M,-33.4,M,,*6C
$GPGGA,230716.800,3852.1807,N,07716.5300,W,1,7,1.66,121.5,M,-33.4,M,,*6C
$GPGGA,230717.000,3852.1807,N,07716.5300,W,1,7,1.66,121.5,M,-33.4,M,,*65
$GPGGA,230717.000,3852.1807,N,07716.5300,W,1,7,1.66,121.5,M,-33.4,M,,*65
$GPGGA,230717.200,3852.1807,N,07716.5300,W,1,7,1.66,121.5,M,-33.4,M,,*67
$GPGGA,230717.200,3852.1807,N,07716.5300,W,1,7,1.66,121.5,M,-33.4,M,,*67
$GPGGA,230717.400,3852.1807,N,07716.5300,W,1,7,1.66,121.5,M,-33.4,M,,*61
$GPGGA,230717.400,3852.1807,N,07716.5300,W,1,7,1.66,121.5,M,-33.4,M,,*61
$GPGGA,230717.600,3852.1807,N,07716.5300,W,1,7,1.66,121.5,M,-33.4,M,,*63
$GPGGA,230717.600,3852.1807,N,07716.5300,W,1,7,1.66,121.5,M,-33.4,M,,*63
$GPGGA,230717.800,3852.1807,N,07716.5300,W,1,7,1.66,121.5,M,-33.4,M,,*6D
$GPGGA,230717.800,3852.1807,N,07716.5300,W,1,7,1.66,121.5,M,-33.4,M,,*6D
$GPGGA,230718.000,3852.1807,N,07716.5300,W,1,7,1.66,121.5,M,-33.4,M,,*6A
$GPGGA,230718.000,3852.1807,N,07716.5300,W,1,7,1.66,121.5,M,-33.4,M,,*6A
$GPGGA,230718.200,3852.1807,N,07716.5300,W,1,7,1.66,121.5,M,-33.4,M,,*68
$GPGGA,230718.200,3852.1807,N,07716.5300,W,1,7,1.66,121.5,M,-33.4,M,,*68
$GPGGA,230718.400,3852.1807,N,07716.5300,W,1,7,1.66,121.5,M,-33.4,M,,*6E
$GPGGA,230718.400,3852.1807,N,07716.5300,W,1,7,1.66,121.5,M,-33.4,M,,*6E
$GPGGA,230718.600,3852.1807,N,07716.5300,W,1,7,1.66,121.5,M,-33.4,M,,*6C
$GPGGA,230718.600,3852.1807,N,07716.5300,W,1,7,1.66,121.5,M,-33.4,M,,*6C
$GPGGA,230718.800,3852.1807,N,07716.5300,W,1,7,1.66,121.5,M,-33.4,M,,*62
$GPGGA,230718.800,3852.1807,N,07716.5300,W,1,7,1.66,121.5,M,-33.4,M,,*62
$GPGGA,230719.000,3852.1807,N,07716.5300,W,1,7,1.66,121.5,M,-33.4,M,,*6B
$GPGGA,230719.000,3852.1807,N,07716.5300,W,1,7,1.66,121.5,M,-33.4,M,,*6B
$GPGGA,230719.200,3852.1807,N,07716.5300,W,1,7,1.66,121.5,M,-33.4,M,,*69
$GPGGA,230719.200,3852.1807,N,07716.5300,W,1,7,1.66,121.5,M,-33.4,M,,*69
$GPGGA,230719.400,3852.1807,N,07716.5300,W,1,7,1.66,121.5,M,-33.4,M,,*6F
$GPGGA,230719.400,3852.1807,N,07716.5300,W,1,7,1.66,121.5,M,-33.4,M,,*6F
$GPGGA,230719.600,3852.1807,N,07716.5300,W,1,7,1.66,121.5,M,-33.4,M,,*6D
$GPGGA,230719.600,3852.1807,N,07716.5300,W,1,7,1.66,121.5,M,-33.4,M,,*6D
$GPGGA,230719.800,3852.1807,N,07716.5300,W,1,7,1.66,121.4,M,-33.4,M,,*62
$GPGGA,230719.800,3852.1807,N,07716.5300,W,1,7,1.66,121.4,M,-33.4,M,,*62
$GPGGA,230720.000,3852.1807,N,07716.5300,W,1,7,1.66,121.4,M,-33.4,M,,*60
$GPGGA,230720.000,3852.1807,N,07716.5300,W,1,7,1.66,121.4,M,-33.4,M,,*60
$GPGGA,230720.200,3852.1807,N,07716.5300,W,1,7,1.66,121.4,M,-33.4,M,,*62
$GPGGA,230720.200,3852.1807,N,07716.5300,W,1,7,1.66,121.4,M,-33.4,M,,*62
$GPGGA,230720.400,3852.1807,N,07716.5300,W,1,7,1.66,121.4,M,-33.4,M,,*64
$GPGGA,230720.400,3852.1807,N,07716.5300,W,1,7,1.66,121.4,M,-33.4,M,,*64
$GPGGA,230720.600,3852.1807,N,07716.5300,W,1,7,1.66,121.4,M,-33.4,M,,*66
$GPGGA,230720.600,3852.1807,N,07716.5300,W,1,7,1.66,121.4,M,-33.4,M,,*66
$GPGGA,230720.800,3852.1807,N,07716.5300,W,1,7,1.66,121.4,M,-33.4,M,,*68
$GPGGA,230720.800,3852.1807,N,07716.5300,W,1,7,1.66,121.4,M,-33.4,M,,*68
$GPGGA,230721.000,3852.1807,N,07716.5300,W,1,7,1.66,121.4,M,-33.4,M,,*61
$GPGGA,230721.000,3852.1807,N,07716.5300,W,1,7,1.66,121.4,M,-33.4,M,,*61
$GPGGA,230721.200,3852.1807,N,07716.5300,W,1,7,1.66,121.4,M,-33.4,M,,*63
$GPGGA,230721.200,3852.1807,N,07716.5300,W,1,7,1.66,121.4,M,-33.4,M,,*63
$GPGGA,230721.400,3852.1807,N,07716.5300,W,1,7,1.66,121.4,M,-33.4,M,,*65
$GPGGA,230721.400,3852.1807,N,07716.5300,W,1,7,1.66,121.4,M,-33.4,M,,*65
$GPGGA,230721.600,3852.1807,N,07716.5300,W,1,7,1.66,121.4,M,-33.4,M,,*67
$GPGGA,230721.600,3852.1807,N,07716.5300,W,1,7,1.66,121.4,M,-33.4,M,,*67
$GPGGA,230721.800,3852.1807,N,07716.5300,W,1,7,1.66,121.4,M,-33.4,M,,*69
$GPGGA,230721.800,3852.1807,N,07716.5300,W,1,7,1.66,121.4,M,-33.4,M,,*69
$GPGGA,230722.000,3852.1807,N,07716.5300,W,1,7,1.66,121.4,M,-33.4,M,,*62
$GPGGA,230722.000,3852.1807,N,07716.5300,W,1,7,1.66,121.4,M,-33.4,M,,*62
$GPGGA,230722.200,3852.1807,N,07716.5300,W,1,7,1.66,121.4,M,-33.4,M,,*60
$GPGGA,230722.200,3852.1807,N,07716.5300,W,1,7,1.66,121.4,M,-33.4,M,,*60
$GPGGA,230722.400,3852.1807,N,07716.5300,W,1,7,1.66,121.4,M,-33.4,M,,*66
$GPGGA,230722.400,3852.1807,N,07716.5300,W,1,7,1.66,121.4,M,-33.4,M,,*66
$GPGGA,230722.600,3852.1807,N,07716.5300,W,1,7,1.66,121.4,M,-33.4,M,,*64
$GPGGA,230722.600,3852.1807,N,07716.5300,W,1,7,1.66,121.4,M,-33.4,M,,*64
$GPGGA,230722.800,3852.1807,N,07716.5300,W,1,7,1.66,121.4,M,-33.4,M,,*6A
$GPGGA,230722.800,3852.1807,N,07716.5300,W,1,7,1.66,121.4,M,-33.4,M,,*6A
$GPGGA,230723.000,3852.1807,N,07716.5300,W,1,7,1.66,121.4,M,-33.4,M,,*63
$GPGGA,230723.000,3852.1807,N,07716.5300,W,1,7,1.66,121.4,M,-33.4,M,,*63
$GPGGA,230723.200,3852.1807,N,07716.5300,W,1,7,1.66,121.4,M,-33.4,M,,*61
$GPGGA,230723.200,3852.1807,N,07716.5300,W,1,7,1.66,121.4,M,-33.4,M,,*61
$GPGGA,230723.400,3852.1807,N,07716.5300,W,1,7,1.66,121.4,M,-33.4,M,,*67
$GPGGA,230723.400,3852.1807,N,07716.5300,W,1,7,1.66,121.4,M,-33.4,M,,*67
$GPGGA,230723.600,3852.1807,N,07716.5300,W,1,7,1.66,121.4,M,-33.4,M,,*65
$GPGGA,230723.600,3852.1807,N,07716.5300,W,1,7,1.66,121.4,M,-33.4,M,,*65
$GPGGA,230723.800,3852.1807,N,07716.5300,W,1,7,1.66,121.4,M,-33.4,M,,*6B
$GPGGA,230723.800,3852.1807,N,07716.5300,W,1,7,1.66,121.4,M,-33.4,M,,*6B
$GPGGA,230724.000,3852.1807,N,07716.5300,W,1,7,1.66,121.4,M,-33.4,M,,*64
$GPGGA,230724.000,3852.1807,N,07716.5300,W,1,7,1.66,121.4,M,-33.4,M,,*64
$GPGGA,230724.200,3852.1807,N,07716.5300,W,1,7,1.66,121.4,M,-33.4,M,,*66
$GPGGA,230724.200,3852.1807,N,07716.5300,W,1,7,1.66,121.4,M,-33.4,M,,*66
$GPGGA,230724.400,3852.1807,N,07716.5300,W,1,7,1.66,121.4,M,-33.4,M,,*60
$GPGGA,230724.400,3852.1807,N,07716.5300,W,1,7,1.66,121.4,M,-33.4,M,,*60
$GPGGA,230724.600,3852.1807,N,07716.5300,W,1,7,1.66,121.4,M,-33.4,M,,*62
$GPGGA,230724.600,3852.1807,N,07716.5300,W,1,7,1.66,121.4,M,-33.4,M,,*62
$GPGGA,230724.800,3852.1807,N,07716.5300,W,1,7,1.66,121.4,M,-33.4,M,,*6C
$GPGGA,230724.800,3852.1807,N,07716.5300,W,1,7,1.66,121.4,M,-33.4,M,,*6C
$GPGGA,230725.000,3852.1807,N,07716.5300,W,1,7,1.66,121.4,M,-33.4,M,,*65
$GPGGA,230725.000,3852.1807,N,07716.5300,W,1,7,1.66,121.4,M,-33.4,M,,*65
$GPGGA,230725.200,3852.1807,N,07716.5300,W,1,7,1.66,121.4,M,-33.4,M,,*67
$GPGGA,230725.200,3852.1807,N,07716.5300,W,1,7,1.66,121.4,M,-33.4,M,,*67
$GPGGA,230725.400,3852.1807,N,07716.5300,W,1,7,1.66,121.4,M,-33.4,M,,*61
$GPGGA,230725.400,3852.1807,N,07716.5300,W,1,7,1.66,121.4,M,-33.4,M,,*61
$GPGGA,230725.600,3852.1807,N,07716.5300,W,1,7,1.66,121.4,M,-33.4,M,,*63
$GPGGA,230725.600,3852.1807,N,07716.5300,W,1,7,1.66,121.4,M,-33.4,M,,*63
$GPGGA,230725.800,3852.1807,N,07716.5300,W,1,7,1.66,121.4,M,-33.4,M,,*6D
$GPGGA,230725.800,3852.1807,N,07716.5300,W,1,7,1.66,121.4,M,-33.4,M,,*6D
$GPGGA,230726.000,3852.1807,N,07716.5300,W,1,7,1.66,121.4,M,-33.4,M,,*66
$GPGGA,230726.000,3852.1807,N,07716.5300,W,1,7,1.66,121.4,M,-33.4,M,,*66
$GPGGA,230726.200,3852.1807,N,07716.5300,W,1,7,1.66,121.4,M,-33.4,M,,*64
$GPGGA,230726.200,3852.1807,N,07716.5300,W,1,7,1.66,121.4,M,-33.4,M,,*64
$GPGGA,230726.400,3852.1807,N,07716.5300,W,1,7,1.66,121.4,M,-33.4,M,,*62
$GPGGA,230726.400,3852.1807,N,07716.5300,W,1,7,1.66,121.4,M,-33.4,M,,*62
$GPGGA,230726.600,3852.1807,N,07716.5300,W,1,7,1.66,121.4,M,-33.4,M,,*60
$GPGGA,230726.600,3852.1807,N,07716.5300,W,1,7,1.66,121.4,M,-33.4,M,,*60
$GPGGA,230726.800,3852.1807,N,07716.5300,W,1,7,1.66,121.4,M,-33.4,M,,*6E
$GPGGA,230726.800,3852.1807,N,07716.5300,W,1,7,1.66,121.4,M,-33.4,M,,*6E
$GPGGA,230727.000,3852.1807,N,07716.5300,W,1,7,1.66,121.4,M,-33.4,M,,*67
$GPGGA,230727.000,3852.1807,N,07716.5300,W,1,7,1.66,121.4,M,-33.4,M,,*67
$GPGGA,230727.200,3852.1807,N,07716.5300,W,1,7,1.66,121.4,M,-33.4,M,,*65
$GPGGA,230727.200,3852.1807,N,07716.5300,W,1,7,1.66,121.4,M,-33.4,M,,*65
$GPGGA,230727.400,3852.1807,N,07716.5300,W,2,7,1.66,121.4,M,-33.4,M,0000,0000*60
$GPGGA,230727.400,3852.1807,N,07716.5300,W,2,7,1.66,121.4,M,-33.4,M,0000,0000*60
$GPGGA,230727.600,3852.1806,N,07716.5300,W,2,7,1.66,121.3,M,-33.4,M,0000,0000*64
$GPGGA,230727.600,3852.1806,N,07716.5300,W,2,7,1.66,121.3,M,-33.4,M,0000,0000*64
$GPGGA,230727.800,3852.1806,N,07716.5300,W,2,7,1.66,121.3,M,-33.4,M,0000,0000*6A
$GPGGA,230727.800,3852.1806,N,07716.5300,W,2,7,1.66,121.3,M,-33.4,M,0000,0000*6A
$GPGGA,230728.000,3852.1805,N,07716.5301,W,2,7,1.66,121.2,M,-33.4,M,0000,0000*6E
$GPGGA,230728.000,3852.1805,N,07716.5301,W,2,7,1.66,121.2,M,-33.4,M,0000,0000*6E
$GPGGA,230728.200,3852.1804,N,07716.5301,W,2,7,1.66,121.2,M,-33.4,M,0000,0000*6D
$GPGGA,230728.200,3852.1804,N,07716.5301,W,2,7,1.66,121.2,M,-33.4,M,0000,0000*6D
$GPGGA,230728.400,3852.1804,N,07716.5301,W,2,7,1.66,121.1,M,-33.4,M,0000,0000*68
$GPGGA,230728.400,3852.1804,N,07716.5301,W,2,7,1.66,121.1,M,-33.4,M,0000,0000*68
$GPGGA,230728.600,3852.1803,N,07716.5301,W,2,7,1.66,121.1,M,-33.4,M,0000,0000*6D
$GPGGA,230728.600,3852.1803,N,07716.5301,W,2,7,1.66,121.1,M,-33.4,M,0000,0000*6D
$GPGGA,230728.800,3852.1803,N,07716.5301,W,2,7,1.66,121.0,M,-33.4,M,0000,0000*62
$GPGGA,230728.800,3852.1803,N,07716.5301,W,2,7,1.66,121.0,M,-33.4,M,0000,0000*62
$GPGGA,230729.000,3852.1802,N,07716.5302,W,2,7,1.66,121.0,M,-33.4,M,0000,0000*69
$GPGGA,230729.000,3852.1802,N,07716.5302,W,2,7,1.66,121.0,M,-33.4,M,0000,0000*69
$GPGGA,230729.200,3852.1801,N,07716.5302,W,2,7,1.66,121.0,M,-33.4,M,0000,0000*68
$GPGGA,230729.200,3852.1801,N,07716.5302,W,2,7,1.66,121.0,M,-33.4,M,0000,0000*68
$GPGGA,230729.400,3852.1801,N,07716.5302,W,2,7,1.66,120.9,M,-33.4,M,0000,0000*66
$GPGGA,230729.400,3852.1801,N,07716.5302,W,2,7,1.66,120.9,M,-33.4,M,0000,0000*66
$GPGGA,230729.600,3852.1800,N,07716.5302,W,2,7,1.66,120.9,M,-33.4,M,0000,0000*65
$GPGGA,230729.600,3852.1800,N,07716.5302,W,2,7,1.66,120.9,M,-33.4,M,0000,0000*65
$GPGGA,230729.800,3852.1800,N,07716.5302,W,2,7,1.66,120.9,M,-33.4,M,0000,0000*6B
$GPGGA,230729.800,3852.1800,N,07716.5302,W,2,7,1.66,120.9,M,-33.4,M,0000,0000*6B
$GPGGA,230730.000,3852.1799,N,07716.5302,W,2,7,1.66,120.9,M,-33.4,M,0000,0000*64
$GPGGA,230730.000,3852.1799,N,07716.5302,W,2,7,1.66,120.9,M,-33.4,M,0000,0000*64
$GPGGA,230730.200,3852.1798,N,07716.5302,W,2,7,1.66,120.8,M,-33.4,M,0000,0000*66
$GPGGA,230730.200,3852.1798,N,07716.5302,W,2,7,1.66,120.8,M,-33.4,M,0000,0000*66
$GPGGA,230730.400,3852.1798,N,07716.5302,W,2,7,1.66,120.8,M,-33.4,M,0000,0000*60
$GPGGA,230730.400,3852.1798,N,07716.5302,W,2,7,1.66,120.8,M,-33.4,M,0000,0000*60
$GPGGA,230730.600,3852.1797,N,07716.5302,W,2,7,1.66,120.8,M,-33.4,M,0000,0000*6D
$GPGGA,230730.600,3852.1797,N,07716.5302,W,2,7,1.66,120.8,M,-33.4,M,0000,0000*6D
$GPGGA,230730.800,3852.1796,N,07716.5303,W,2,7,1.66,120.7,M,-33.4,M,0000,0000*6C
$GPGGA,230730.800,3852.1796,N,07716.5303,W,2,7,1.66,120.7,M,-33.4,M,0000,0000*6C
$GPGGA,230731.000,3852.1796,N,07716.5303,W,2,7,1.66,120.7,M,-33.4,M,0000,0000*65
$GPGGA,230731.000,3852.1796,N,07716.5303,W,2,7,1.66,120.7,M,-33.4,M,0000,0000*65
$GPGGA,230731.200,3852.1795,N,07716.5303,W,2,7,1.66,120.7,M,-33.4,M,0000,0000*64
$GPGGA,230731.200,3852.1795,N,07716.5303,W,2,7,1.66,120.7,M,-33.4,M,0000,0000*64
$GPGGA,230731.400,3852.1794,N,07716.5303,W,2,7,1.66,120.6,M,-33.4,M,0000,0000*62
$GPGGA,230731.400,3852.1794,N,07716.5303,W,2,7,1.66,120.6,M,-33.4,M,0000,0000*62
$GPGGA,230731.600,3852.1794,N,07716.5303,W,2,7,1.66,120.6,M,-33.4,M,0000,0000*60
$GPGGA,230731.600,3852.1794,N,07716.5303,W,2,7,1.66,120.6,M,-33.4,M,0000,0000*60
$GPGGA,230731.800,3852.1793,N,07716.5303,W,2,7,1.66,120.6,M,-33.4,M,0000,0000*69
$GPGGA,230731.800,3852.1793,N,07716.5303,W,2,7,1.66,120.6,M,-33.4,M,0000,0000*69
$GPGGA,230732.000,3852.1793,N,07716.5303,W,2,7,1.66,120.6,M,-33.4,M,0000,0000*62
$GPGGA,230732.000,3852.1793,N,07716.5303,W,2,7,1.66,120.6,M,-33.4,M,0000,0000*62
$GPGGA,230732.200,3852.1792,N,07716.5303,W,2,7,1.66,120.5,M,-33.4,M,0000,0000*62
$GPGGA,230732.200,3852.1792,N,07716.5303,W,2,7,1.66,120.5,M,-33.4,M,0000,0000*62
$GPGGA,230732.400,3852.1792,N,07716.5303,W,2,7,1.66,120.5,M,-33.4,M,0000,0000*64
$GPGGA,230732.400,3852.1792,N,07716.5303,W,2,7,1.66,120.5,M,-33.4,M,0000,0000*64
$GPGGA,230732.600,3852.1791,N,07716.5303,W,2,7,1.66,120.5,M,-33.4,M,0000,0000*65
$GPGGA,230732.600,3852.1791,N,07716.5303,W,2,7,1.66,120.5,M,-33.4,M,0000,0000*65
$GPGGA,230732.800,3852.1791,N,07716.5303,W,2,7,1.66,120.5,M,-33.4,M,0000,0000*6B
$GPGGA,230732.800,3852.1791,N,07716.5303,W,2,7,1.66,120.5,M,-33.4,M,0000,0000*6B
$GPGGA,230733.000,3852.1790,N,07716.5303,W,2,7,1.66,120.4,M,-33.4,M,0000,0000*62
$GPGGA,230733.000,3852.1790,N,07716.5303,W,2,7,1.66,120.4,M,-33.4,M,0000,0000*62
$GPGGA,230733.200,3852.1790,N,07716.5303,W,2,7,1.66,120.4,M,-33.4,M,0000,0000*60
$GPGGA,230733.200,3852.1790,N,07716.5303,W,2,7,1.66,120.4,M,-33.4,M,0000,0000*60
$GPGGA,230733.400,3852.1789,N,07716.5303,W,2,7,1.66,120.4,M,-33.4,M,0000,0000*6E
$GPGGA,230733.400,3852.1789,N,07716.5303,W,2,7,1.66,120.4,M,-33.4,M,0000,0000*6E
$GPGGA,230733.600,3852.1789,N,07716.5303,W,2,7,1.66,120.3,M,-33.4,M,0000,0000*6B
$GPGGA,230733.600,3852.1789,N,07716.5303,W,2,7,1.66,120.3,M,-33.4,M,0000,0000*6B
$GPGGA,230733.800,3852.1788,N,07716.5303,W,2,7,1.66,120.3,M,-33.4,M,0000,0000*64
$GPGGA,230733.800,3852.1788,N,07716.5303,W,2,7,1.66,120.3,M,-33.4,M,0000,0000*64
$GPGGA,230734.000,3852.1788,N,07716.5303,W,2,7,1.66,120.3,M,-33.4,M,0000,0000*6B
$GPGGA,230734.000,3852.1788,N,07716.5303,W,2,7,1.66,120.3,M,-33.4,M,0000,0000*6B
$GPGGA,230734.200,3852.1787,N,07716.5303,W,2,7,1.66,120.3,M,-33.4,M,0000,0000*66
$GPGGA,230734.200,3852.1787,N,07716.5303,W,2,7,1.66,120.3,M,-33.4,M,0000,0000*66
$GPGGA,230734.400,3852.1787,N,07716.5303,W,2,7,1.66,120.2,M,-33.4,M,0000,0000*61
$GPGGA,230734.400,3852.1787,N,07716.5303,W,2,7,1.66,120.2,M,-33.4,M,0000,0000*61
$GPGGA,230734.600,3852.1786,N,07716.5303,W,2,7,1.66,120.2,M,-33.4,M,0000,0000*62
$GPGGA,230734.600,3852.1786,N,07716.5303,W,2,7,1.66,120.2,M,-33.4,M,0000,0000*62
$GPGGA,230734.800,3852.1786,N,07716.5303,W,2,7,1.66,120.2,M,-33.4,M,0000,0000*6C
$GPGGA,230734.800,3852.1786,N,07716.5303,W,2,7,1.66,120.2,M,-33.4,M,0000,0000*6C
$GPGGA,230735.000,3852.1786,N,07716.5304,W,2,7,1.66,120.2,M,-33.4,M,0000,0000*62
$GPGGA,230735.000,3852.1786,N,07716.5304,W,2,7,1.66,120.2,M,-33.4,M,0000,0000*62
$GPGGA,230735.200,3852.1785,N,07716.5304,W,2,7,1.66,120.1,M,-33.4,M,0000,0000*60
$GPGGA,230735.200,3852.1785,N,07716.5304,W,2,7,1.66,120.1,M,-33.4,M,0000,0000*60
$GPGGA,230735.400,3852.1785,N,07716.5303,W,2,7,1.66,120.1,M,-33.4,M,0000,0000*61
$GPGGA,230735.400,3852.1785,N,07716.5303,W,2,7,1.66,120.1,M,-33.4,M,0000,0000*61
$GPGGA,230735.600,3852.1785,N,07716.5303,W,2,7,1.66,120.1,M,-33.4,M,0000,0000*63
$GPGGA,230735.600,3852.1785,N,07716.5303,W,2,7,1.66,120.1,M,-33.4,M,0000,0000*63
$GPGGA,230735.800,3852.1784,N,07716.5303,W,2,7,1.66,120.0,M,-33.4,M,0000,0000*6D
$GPGGA,230735.800,3852.1784,N,07716.5303,W,2,7,1.66,120.0,M,-33.4,M,0000,0000*6D
$GPGGA,230736.000,3852.1784,N,07716.5303,W,2,7,1.66,120.0,M,-33.4,M,0000,0000*66
$GPGGA,230736.000,3852.1784,N,07716.5303,W,2,7,1.66,120.0,M,-33.4,M,0000,0000*66
$GPGGA,230736.200,3852.1784,N,07716.5303,W,2,7,1.66,120.0,M,-33.4,M,0000,0000*64
$GPGGA,230736.200,3852.1784,N,07716.5303,W,2,7,1.66,120.0,M,-33.4,M,0000,0000*64
$GPGGA,230736.400,3852.1784,N,07716.5304,W,2,7,1.66,120.0,M,-33.4,M,0000,0000*65
$GPGGA,230736.400,3852.1784,N,07716.5304,W,2,7,1.66,120.0,M,-33.4,M,0000,0000*65
$GPGGA,230736.600,3852.1784,N,07716.5303,W,2,7,1.66,119.9,M,-33.4,M,0000,0000*63
$GPGGA,230736.600,3852.1784,N,07716.5303,W,2,7,1.66,119.9,M,-33.4,M,0000,0000*63
$GPGGA,230736.800,3852.1783,N,07716.5303,W,2,7,1.66,119.9,M,-33.4,M,0000,0000*6A
$GPGGA,230736.800,3852.1783,N,07716.5303,W,2,7,1.66,119.9,M,-33.4,M,0000,0000*6A
$GPGGA,230737.000,3852.1783,N,07716.5303,W,2,7,1.66,119.9,M,-33.4,M,0000,0000*63
$GPGGA,230737.000,3852.1783,N,07716.5303,W,2,7,1.66,119.9,M,-33.4,M,0000,0000*63
$GPGGA,230737.200,3852.1783,N,07716.5303,W,2,7,1.66,119.9,M,-33.4,M,0000,0000*61
$GPGGA,230737.200,3852.1783,N,07716.5303,W,2,7,1.66,119.9,M,-33.4,M,0000,0000*61
$GPGGA,230737.400,3852.1783,N,07716.5303,W,2,7,1.66,119.8,M,-33.4,M,0000,0000*66
$GPGGA,230737.400,3852.1783,N,07716.5303,W,2,7,1.66,119.8,M,-33.4,M,0000,0000*66
$GPGGA,230737.600,3852.1783,N,07716.5303,W,2,7,1.66,119.8,M,-33.4,M,0000,0000*64
$GPGGA,230737.600,3852.1783,N,07716.5303,W,2,7,1.66,119.8,M,-33.4,M,0000,0000*64
$GPGGA,230737.800,3852.1782,N,07716.5303,W,2,7,1.66,119.7,M,-33.4,M,0000,0000*64
$GPGGA,230737.800,3852.1782,N,07716.5303,W,2,7,1.66,119.7,M,-33.4,M,0000,0000*64
$GPGGA,230738.000,3852.1782,N,07716.5303,W,2,7,1.66,119.7,M,-33.4,M,0000,0000*63
$GPGGA,230738.000,3852.1782,N,07716.5303,W,2,7,1.66,119.7,M,-33.4,M,0000,0000*63
$GPGGA,230738.200,3852.1782,N,07716.5303,W,2,7,1.66,119.7,M,-33.4,M,0000,0000*61
$GPGGA,230738.200,3852.1782,N,07716.5303,W,2,7,1.66,119.7,M,-33.4,M,0000,0000*61
$GPGGA,230738.400,3852.1782,N,07716.5303,W,2,7,1.66,119.7,M,-33.4,M,0000,0000*67
$GPGGA,230738.400,3852.1782,N,07716.5303,W,2,7,1.66,119.7,M,-33.4,M,0000,0000*67
$GPGGA,230738.600,3852.1782,N,07716.5303,W,2,7,1.66,119.6,M,-33.4,M,0000,0000*64
$GPGGA,230738.600,3852.1782,N,07716.5303,W,2,7,1.66,119.6,M,-33.4,M,0000,0000*64
$GPGGA,230738.800,3852.1781,N,07716.5303,W,2,7,1.66,119.6,M,-33.4,M,0000,0000*69
$GPGGA,230738.800,3852.1781,N,07716.5303,W,2,7,1.66,119.6,M,-33.4,M,0000,0000*69
$GPGGA,230739.000,3852.1781,N,07716.5303,W,2,7,1.66,119.6,M,-33.4,M,0000,0000*60
$GPGGA,230739.000,3852.1781,N,07716.5303,W,2,7,1.66,119.6,M,-33.4,M,0000,0000*60
$GPGGA,230739.200,3852.1781,N,07716.5303,W,2,7,1.66,119.5,M,-33.4,M,0000,0000*61
$GPGGA,230739.200,3852.1781,N,07716.5303,W,2,7,1.66,119.5,M,-33.4,M,0000,0000*61
$GPGGA,230739.400,3852.1781,N,07716.5303,W,2,7,1.66,119.5,M,-33.4,M,0000,0000*67
$GPGGA,230739.400,3852.1781,N,07716.5303,W,2,7,1.66,119.5,M,-33.4,M,0000,0000*67
$GPGGA,230739.600,3852.1781,N,07716.5303,W,2,7,1.66,119.5,M,-33.4,M,0000,0000*65
$GPGGA,230739.600,3852.1781,N,07716.5303,W,2,7,1.66,119.5,M,-33.4,M,0000,0000*65
$GPGGA,230739.800,3852.1780,N,07716.5303,W,2,7,1.66,119.4,M,-33.4,M,0000,0000*6B
$GPGGA,230739.800,3852.1780,N,07716.5303,W,2,7,1.66,119.4,M,-33.4,M,0000,0000*6B
$GPGGA,230740.000,3852.1780,N,07716.5303,W,2,7,1.66,119.4,M,-33.4,M,0000,0000*6D
$GPGGA,230740.000,3852.1780,N,07716.5303,W,2,7,1.66,119.4,M,-33.4,M,0000,0000*6D
$GPGGA,230740.200,3852.1780,N,07716.5303,W,2,7,1.66,119.4,M,-33.4,M,0000,0000*6F
$GPGGA,230740.200,3852.1780,N,07716.5303,W,2,7,1.66,119.4,M,-33.4,M,0000,0000*6F
$GPGGA,230740.400,3852.1780,N,07716.5303,W,2,7,1.66,119.3,M,-33.4,M,0000,0000*6E
$GPGGA,230740.400,3852.1780,N,07716.5303,W,2,7,1.66,119.3,M,-33.4,M,0000,0000*6E
$GPGGA,230740.600,3852.1780,N,07716.5303,W,2,7,1.66,119.3,M,-33.4,M,0000,0000*6C
$GPGGA,230740.600,3852.1780,N,07716.5303,W,2,7,1.66,119.3,M,-33.4,M,0000,0000*6C
$GPGGA,230740.800,3852.1780,N,07716.5303,W,2,7,1.66,119.3,M,-33.4,M,0000,0000*62
$GPGGA,230740.800,3852.1780,N,07716.5303,W,2,7,1.66,119.3,M,-33.4,M,0000,0000*62
$GPGGA,230741.000,3852.1780,N,07716.5303,W,2,7,1.66,119.2,M,-33.4,M,0000,0000*6A
$GPGGA,230741.000,3852.1780,N,07716.5303,W,2,7,1.66,119.2,M,-33.4,M,0000,0000*6A
$GPGGA,230741.200,3852.1780,N,07716.5303,W,2,7,1.66,119.2,M,-33.4,M,0000,0000*68
$GPGGA,230741.200,3852.1780,N,07716.5303,W,2,7,1.66,119.2,M,-33.4,M,0000,0000*68
$GPGGA,230741.400,3852.1779,N,07716.5303,W,2,7,1.66,119.2,M,-33.4,M,0000,0000*68
$GPGGA,230741.400,3852.1779,N,07716.5303,W,2,7,1.66,119.2,M,-33.4,M,0000,0000*68
$GPGGA,230741.600,3852.1779,N,07716.5303,W,2,7,1.66,119.2,M,-33.4,M,0000,0000*6A
$GPGGA,230741.600,3852.1779,N,07716.5303,W,2,7,1.66,119.2,M,-33.4,M,0000,0000*6A
$GPGGA,230741.800,3852.1779,N,07716.5302,W,2,7,1.66,119.2,M,-33.4,M,0000,0000*65
$GPGGA,230741.800,3852.1779,N,07716.5302,W,2,7,1.66,119.2,M,-33.4,M,0000,0000*65
$GPGGA,230742.000,3852.1779,N,07716.5302,W,2,7,1.66,119.1,M,-33.4,M,0000,0000*6D
$GPGGA,230742.000,3852.1779,N,07716.5302,W,2,7,1.66,119.1,M,-33.4,M,0000,0000*6D
$GPGGA,230742.200,3852.1779,N,07716.5302,W,2,7,1.66,119.1,M,-33.4,M,0000,0000*6F
$GPGGA,230742.200,3852.1779,N,07716.5302,W,2,7,1.66,119.1,M,-33.4,M,0000,0000*6F
$GPGGA,230742.400,3852.1779,N,07716.5302,W,2,7,1.66,119.1,M,-33.4,M,0000,0000*69
$GPGGA,230742.400,3852.1779,N,07716.5302,W,2,7,1.66,119.1,M,-33.4,M,0000,0000*69
$GPGGA,230742.600,3852.1779,N,07716.5302,W,2,7,1.66,119.0,M,-33.4,M,0000,0000*6A
$GPGGA,230742.600,3852.1779,N,07716.5302,W,2,7,1.66,119.0,M,-33.4,M,0000,0000*6A
$GPGGA,230742.800,3852.1779,N,07716.5302,W,2,7,1.66,119.0,M,-33.4,M,0000,0000*64
$GPGGA,230742.800,3852.1779,N,07716.5302,W,2,7,1.66,119.0,M,-33.4,M,0000,0000*64
$GPGGA,230743.000,3852.1779,N,07716.5302,W,2,7,1.66,119.0,M,-33.4,M,0000,0000*6D
$GPGGA,230743.000,3852.1779,N,07716.5302,W,2,7,1.66,119.0,M,-33.4,M,0000,0000*6D
$GPGGA,230743.200,3852.1778,N,07716.5302,W,2,7,1.66,118.9,M,-33.4,M,0000,0000*66
$GPGGA,230743.200,3852.1778,N,07716.5302,W,2,7,1.66,118.9,M,-33.4,M,0000,0000*66
$GPGGA,230743.400,3852.1778,N,07716.5302,W,2,7,1.66,118.9,M,-33.4,M,0000,0000*60
$GPGGA,230743.400,3852.1778,N,07716.5302,W,2,7,1.66,118.9,M,-33.4,M,0000,0000*60
$GPGGA,230743.600,3852.1778,N,07716.5302,W,2,7,1.66,118.9,M,-33.4,M,0000,0000*62
$GPGGA,230743.600,3852.1778,N,07716.5302,W,2,7,1.66,118.9,M,-33.4,M,0000,0000*62
$GPGGA,230743.800,3852.1778,N,07716.5302,W,2,7,1.66,118.9,M,-33.4,M,0000,0000*6C
$GPGGA,230743.800,3852.1778,N,07716.5302,W,2,7,1.66,118.9,M,-33.4,M,0000,0000*6C
$GPGGA,230744.000,3852.1778,N,07716.5302,W,2,7,1.66,118.8,M,-33.4,M,0000,0000*62
$GPGGA,230744.000,3852.1778,N,07716.5302,W,2,7,1.66,118.8,M,-33.4,M,0000,0000*62
$GPGGA,230744.200,3852.1778,N,07716.5302,W,2,7,1.66,118.8,M,-33.4,M,0000,0000*60
$GPGGA,230744.200,3852.1778,N,07716.5302,W,2,7,1.66,118.8,M,-33.4,M,0000,0000*60
$GPGGA,230744.400,3852.1778,N,07716.5302,W,2,7,1.66,118.8,M,-33.4,M,0000,0000*66
$GPGGA,230744.400,3852.1778,N,07716.5302,W,2,7,1.66,118.8,M,-33.4,M,0000,0000*66
$GPGGA,230744.600,3852.1778,N,07716.5302,W,2,7,1.66,118.8,M,-33.4,M,0000,0000*64
$GPGGA,230744.600,3852.1778,N,07716.5302,W,2,7,1.66,118.8,M,-33.4,M,0000,0000*64
$GPGGA,230744.800,3852.1778,N,07716.5302,W,2,7,1.66,118.8,M,-33.4,M,0000,0000*6A
$GPGGA,230744.800,3852.1778,N,07716.5302,W,2,7,1.66,118.8,M,-33.4,M,0000,0000*6A
$GPGGA,230745.000,3852.1778,N,07716.5302,W,2,7,1.66,118.7,M,-33.4,M,0000,0000*6C
$GPGGA,230745.000,3852.1778,N,07716.5302,W,2,7,1.66,118.7,M,-33.4,M,0000,0000*6C
$GPGGA,230745.200,3852.1778,N,07716.5302,W,2,7,1.66,118.7,M,-33.4,M,0000,0000*6E
$GPGGA,230745.200,3852.1778,N,07716.5302,W,2,7,1.66,118.7,M,-33.4,M,0000,0000*6E
$GPGGA,230745.400,3852.1777,N,07716.5302,W,2,7,1.66,118.7,M,-33.4,M,0000,0000*67
$GPGGA,230745.400,3852.1777,N,07716.5302,W,2,7,1.66,118.7,M,-33.4,M,0000,0000*67
$GPGGA,230745.600,3852.1777,N,07716.5301,W,2,7,1.66,118.7,M,-33.4,M,0000,0000*66
$GPGGA,230745.600,3852.1777,N,07716.5301,W,2,7,1.66,118.7,M,-33.4,M,0000,0000*66
$GPGGA,230745.800,3852.1777,N,07716.5301,W,2,7,1.66,118.6,M,-33.4,M,0000,0000*69
$GPGGA,230745.800,3852.1777,N,07716.5301,W,2,7,1.66,118.6,M,-33.4,M,0000,0000*69
$GPGGA,230746.000,3852.1777,N,07716.5301,W,2,7,1.66,118.6,M,-33.4,M,0000,0000*62
$GPGGA,230746.000,3852.1777,N,07716.5301,W,2,7,1.66,118.6,M,-33.4,M,0000,0000*62
$GPGGA,230746.200,3852.1777,N,07716.5301,W,2,7,1.66,118.6,M,-33.4,M,0000,0000*60
$GPGGA,230746.200,3852.1777,N,07716.5301,W,2,7,1.66,118.6,M,-33.4,M,0000,0000*60
$GPGGA,230746.400,3852.1777,N,07716.5301,W,2,7,1.66,118.6,M,-33.4,M,0000,0000*66
$GPGGA,230746.400,3852.1777,N,07716.5301,W,2,7,1.66,118.6,M,-33.4,M,0000,0000*66
$GPGGA,230746.600,3852.1777,N,07716.5301,W,2,7,1.66,118.6,M,-33.4,M,0000,0000*64
$GPGGA,230746.600,3852.1777,N,07716.5301,W,2,7,1.66,118.6,M,-33.4,M,0000,0000*64
$GPGGA,230746.800,3852.1777,N,07716.5301,W,2,7,1.66,118.5,M,-33.4,M,0000,0000*69
$GPGGA,230746.800,3852.1777,N,07716.5301,W,2,7,1.66,118.5,M,-33.4,M,0000,0000*69
$GPGGA,230747.000,3852.1777,N,07716.5301,W,2,7,1.66,118.5,M,-33.4,M,0000,0000*60
$GPGGA,230747.000,3852.1777,N,07716.5301,W,2,7,1.66,118.5,M,-33.4,M,0000,0000*60
$GPGGA,230747.200,3852.1777,N,07716.5301,W,2,7,1.66,118.5,M,-33.4,M,0000,0000*62
$GPGGA,230747.200,3852.1777,N,07716.5301,W,2,7,1.66,118.5,M,-33.4,M,0000,0000*62
$GPGGA,230747.400,3852.1777,N,07716.5301,W,2,7,1.66,118.5,M,-33.4,M,0000,0000*64
$GPGGA,230747.400,3852.1777,N,07716.5301,W,2,7,1.66,118.5,M,-33.4,M,0000,0000*64
$GPGGA,230747.600,3852.1777,N,07716.5301,W,2,7,1.66,118.5,M,-33.4,M,0000,0000*66
$GPGGA,230747.600,3852.1777,N,07716.5301,W,2,7,1.66,118.5,M,-33.4,M,0000,0000*66
$GPGGA,230747.800,3852.1777,N,07716.5301,W,2,7,1.66,118.4,M,-33.4,M,0000,0000*69
$GPGGA,230747.800,3852.1777,N,07716.5301,W,2,7,1.66,118.4,M,-33.4,M,0000,0000*69
$GPGGA,230748.000,3852.1776,N,07716.5301,W,2,7,1.66,118.4,M,-33.4,M,0000,0000*6F
$GPGGA,230748.000,3852.1776,N,07716.5301,W,2,7,1.66,118.4,M,-33.4,M,0000,0000*6F
$GPGGA,230748.200,3852.1776,N,07716.5301,W,2,7,1.66,118.4,M,-33.4,M,0000,0000*6D
$GPGGA,230748.200,3852.1776,N,07716.5301,W,2,7,1.66,118.4,M,-33.4,M,0000,0000*6D
$GPGGA,230748.400,3852.1776,N,07716.5301,W,2,7,1.66,118.4,M,-33.4,M,0000,0000*6B
$GPGGA,230748.400,3852.1776,N,07716.5301,W,2,7,1.66,118.4,M,-33.4,M,0000,0000*6B
$GPGGA,230748.600,3852.1776,N,07716.5301,W,2,7,1.66,118.4,M,-33.4,M,0000,0000*69
$GPGGA,230748.600,3852.1776,N,07716.5301,W,2,7,1.66,118.4,M,-33.4,M,0000,0000*69
$GPGGA,230748.800,3852.1776,N,07716.5301,W,2,7,1.66,118.3,M,-33.4,M,0000,0000*60
$GPGGA,230748.800,3852.1776,N,07716.5301,W,2,7,1.66,118.3,M,-33.4,M,0000,0000*60
$GPGGA,230749.000,3852.1776,N,07716.5301,W,2,7,1.66,118.3,M,-33.4,M,0000,0000*69
$GPGGA,230749.000,3852.1776,N,07716.5301,W,2,7,1.66,118.3,M,-33.4,M,0000,0000*69
$GPGGA,230749.200,3852.1775,N,07716.5301,W,2,7,1.66,118.2,M,-33.4,M,0000,0000*69
$GPGGA,230749.200,3852.1775,N,07716.5301,W,2,7,1.66,118.2,M,-33.4,M,0000,0000*69
$GPGGA,230749.400,3852.1775,N,07716.5301,W,2,7,1.66,118.2,M,-33.4,M,0000,0000*6F
$GPGGA,230749.400,3852.1775,N,07716.5301,W,2,7,1.66,118.2,M,-33.4,M,0000,0000*6F
$GPGGA,230749.600,3852.1775,N,07716.5301,W,2,7,1.66,118.2,M,-33.4,M,0000,0000*6D
$GPGGA,230749.600,3852.1775,N,07716.5301,W,2,7,1.66,118.2,M,-33.4,M,0000,0000*6D
$GPGGA,230749.800,3852.1775,N,07716.5301,W,2,7,1.66,118.2,M,-33.4,M,0000,0000*63
$GPGGA,230749.800,3852.1775,N,07716.5301,W,2,7,1.66,118.2,M,-33.4,M,0000,0000*63
$GPGGA,230750.000,3852.1775,N,07716.5301,W,2,7,1.66,118.2,M,-33.4,M,0000,0000*63
$GPGGA,230750.000,3852.1775,N,07716.5301,W,2,7,1.66,118.2,M,-33.4,M,0000,0000*63
$GPGGA,230750.200,3852.1775,N,07716.5301,W,2,7,1.66,118.1,M,-33.4,M,0000,0000*62
$GPGGA,230750.200,3852.1775,N,07716.5301,W,2,7,1.66,118.1,M,-33.4,M,0000,0000*62
$GPGGA,230750.400,3852.1774,N,07716.5301,W,2,7,1.66,118.1,M,-33.4,M,0000,0000*65
$GPGGA,230750.400,3852.1774,N,07716.5301,W,2,7,1.66,118.1,M,-33.4,M,0000,0000*65
$GPGGA,230750.600,3852.1774,N,07716.5301,W,2,7,1.66,118.1,M,-33.4,M,0000,0000*67
$GPGGA,230750.600,3852.1774,N,07716.5301,W,2,7,1.66,118.1,M,-33.4,M,0000,0000*67
$GPGGA,230750.800,3852.1774,N,07716.5301,W,2,7,1.66,118.0,M,-33.4,M,0000,0000*68
$GPGGA,230750.800,3852.1774,N,07716.5301,W,2,7,1.66,118.0,M,-33.4,M,0000,0000*68
$GPGGA,230751.000,3852.1774,N,07716.5301,W,2,7,1.66,118.0,M,-33.4,M,0000,0000*61
$GPGGA,230751.000,3852.1774,N,07716.5301,W,2,7,1.66,118.0,M,-33.4,M,0000,0000*61
$GPGGA,230751.200,3852.1774,N,07716.5302,W,2,7,1.66,117.9,M,-33.4,M,0000,0000*66
$GPGGA,230751.200,3852.1774,N,07716.5302,W,2,7,1.66,117.9,M,-33.4,M,0000,0000*66
$GPGGA,230751.400,3852.1774,N,07716.5302,W,2,7,1.66,117.9,M,-33.4,M,0000,0000*60
$GPGGA,230751.400,3852.1774,N,07716.5302,W,2,7,1.66,117.9,M,-33.4,M,0000,0000*60
$GPGGA,230751.600,3852.1774,N,07716.5302,W,2,7,1.66,117.9,M,-33.4,M,0000,0000*62
$GPGGA,230751.600,3852.1774,N,07716.5302,W,2,7,1.66,117.9,M,-33.4,M,0000,0000*62
$GPGGA,230751.800,3852.1774,N,07716.5302,W,2,7,1.66,117.9,M,-33.4,M,0000,0000*6C
$GPGGA,230751.800,3852.1774,N,07716.5302,W,2,7,1.66,117.9,M,-33.4,M,0000,0000*6C
$GPGGA,230752.000,3852.1773,N,07716.5302,W,2,7,1.66,117.8,M,-33.4,M,0000,0000*61
$GPGGA,230752.000,3852.1773,N,07716.5302,W,2,7,1.66,117.8,M,-33.4,M,0000,0000*61
$GPGGA,230752.200,3852.1773,N,07716.5302,W,2,7,1.66,117.8,M,-33.4,M,0000,0000*63
$GPGGA,230752.200,3852.1773,N,07716.5302,W,2,7,1.66,117.8,M,-33.4,M,0000,0000*63
$GPGGA,230752.400,3852.1773,N,07716.5302,W,2,7,1.66,117.8,M,-33.4,M,0000,0000*65
$GPGGA,230752.400,3852.1773,N,07716.5302,W,2,7,1.66,117.8,M,-33.4,M,0000,0000*65
$GPGGA,230752.600,3852.1773,N,07716.5303,W,2,7,1.66,117.8,M,-33.4,M,0000,0000*66
$GPGGA,230752.600,3852.1773,N,07716.5303,W,2,7,1.66,117.8,M,-33.4,M,0000,0000*66
$GPGGA,230752.800,3852.1773,N,07716.5303,W,2,7,1.66,117.8,M,-33.4,M,0000,0000*68
$GPGGA,230752.800,3852.1773,N,07716.5303,W,2,7,1.66,117.8,M,-33.4,M,0000,0000*68
$GPGGA,230753.000,3852.1773,N,07716.5303,W,2,7,1.66,117.7,M,-33.4,M,0000,0000*6E
$GPGGA,230753.000,3852.1773,N,07716.5303,W,2,7,1.66,117.7,M,-33.4,M,0000,0000*6E
$GPGGA,230753.200,3852.1772,N,07716.5303,W,2,7,1.66,117.7,M,-33.4,M,0000,0000*6D
$GPGGA,230753.200,3852.1772,N,07716.5303,W,2,7,1.66,117.7,M,-33.4,M,0000,0000*6D
$GPGGA,230753.400,3852.1772,N,07716.5304,W,2,7,1.66,117.7,M,-33.4,M,0000,0000*6C
$GPGGA,230753.400,3852.1772,N,07716.5304,W,2,7,1.66,117.7,M,-33.4,M,0000,0000*6C
$GPGGA,230753.600,3852.1772,N,07716.5304,W,2,7,1.66,117.7,M,-33.4,M,0000,0000*6E
$GPGGA,230753.600,3852.1772,N,07716.5304,W,2,7,1.66,117.7,M,-33.4,M,0000,0000*6E
$GPGGA,230753.800,3852.1772,N,07716.5304,W,2,7,1.66,117.7,M,-33.4,M,0000,0000*60
$GPGGA,230753.800,3852.1772,N,07716.5304,W,2,7,1.66,117.7,M,-33.4,M,0000,0000*60
